{"error":0,"error_text":"L\u1ea5y d\u1eef li\u1ec7u t\u1ec9nh th\u00e0nh, qu\u1eadn huy\u1ec7n, ph\u01b0\u1eddng x\u00e3 th\u00e0nh c\u00f4ng..!","data_name":"Full 64 T\u1ec9nh th\u00e0nh","data":[{"id":"01","name":"H\u00e0 N\u1ed9i","name_en":"Ha Noi","full_name":"Th\u00e0nh ph\u1ed1 H\u00e0 N\u1ed9i","full_name_en":"Ha Noi City","latitude":"21.0283334","longitude":"105.854041","data2":[{"id":"001","name":"Ba \u0110\u00ecnh","name_en":"Ba Dinh","full_name":"Qu\u1eadn Ba \u0110\u00ecnh","full_name_en":"Ba Dinh District","latitude":"21.0365377","longitude":"105.8285908","data3":[{"id":"00001","name":"Ph\u00fac X\u00e1","name_en":"Phuc Xa","full_name":"Ph\u01b0\u1eddng Ph\u00fac X\u00e1","full_name_en":"Phuc Xa Ward","latitude":"21.0456942","longitude":"105.8482503"},{"id":"00004","name":"Tr\u00fac B\u1ea1ch","name_en":"Truc Bach","full_name":"Ph\u01b0\u1eddng Tr\u00fac B\u1ea1ch","full_name_en":"Truc Bach Ward","latitude":"21.0460498","longitude":"105.8418932"},{"id":"00006","name":"V\u0129nh Ph\u00fac","name_en":"Vinh Phuc","full_name":"Ph\u01b0\u1eddng V\u0129nh Ph\u00fac","full_name_en":"Vinh Phuc Ward","latitude":"21.0421695","longitude":"105.8101415"},{"id":"00007","name":"C\u1ed1ng V\u1ecb","name_en":"Cong Vi","full_name":"Ph\u01b0\u1eddng C\u1ed1ng V\u1ecb","full_name_en":"Cong Vi Ward","latitude":"21.0350399","longitude":"105.8101844"},{"id":"00008","name":"Li\u1ec5u Giai","name_en":"Lieu Giai","full_name":"Ph\u01b0\u1eddng Li\u1ec5u Giai","full_name_en":"Lieu Giai Ward","latitude":"21.0375836","longitude":"105.8174205"},{"id":"00010","name":"Nguy\u1ec5n Trung Tr\u1ef1c","name_en":"Nguyen Trung Truc","full_name":"Ph\u01b0\u1eddng Nguy\u1ec5n Trung Tr\u1ef1c","full_name_en":"Nguyen Trung Truc Ward","latitude":"21.0419431","longitude":"105.8472242"},{"id":"00013","name":"Qu\u00e1n Th\u00e1nh","name_en":"Quan Thanh","full_name":"Ph\u01b0\u1eddng Qu\u00e1n Th\u00e1nh","full_name_en":"Quan Thanh Ward","latitude":"21.0415304","longitude":"105.8414121"},{"id":"00016","name":"Ng\u1ecdc H\u00e0","name_en":"Ngoc Ha","full_name":"Ph\u01b0\u1eddng Ng\u1ecdc H\u00e0","full_name_en":"Ngoc Ha Ward","latitude":"21.0385","longitude":"105.8250869"},{"id":"00019","name":"\u0110i\u1ec7n Bi\u00ean","name_en":"Dien Bien","full_name":"Ph\u01b0\u1eddng \u0110i\u1ec7n Bi\u00ean","full_name_en":"Dien Bien Ward","latitude":"21.0323562","longitude":"105.8365906"},{"id":"00022","name":"\u0110\u1ed9i C\u1ea5n","name_en":"Doi Can","full_name":"Ph\u01b0\u1eddng \u0110\u1ed9i C\u1ea5n","full_name_en":"Doi Can Ward","latitude":"21.0346472","longitude":"105.8266045"},{"id":"00025","name":"Ng\u1ecdc Kh\u00e1nh","name_en":"Ngoc Khanh","full_name":"Ph\u01b0\u1eddng Ng\u1ecdc Kh\u00e1nh","full_name_en":"Ngoc Khanh Ward","latitude":"21.0296494","longitude":"105.810283"},{"id":"00028","name":"Kim M\u00e3","name_en":"Kim Ma","full_name":"Ph\u01b0\u1eddng Kim M\u00e3","full_name_en":"Kim Ma Ward","latitude":"21.0314542","longitude":"105.8249046"},{"id":"00031","name":"Gi\u1ea3ng V\u00f5","name_en":"Giang Vo","full_name":"Ph\u01b0\u1eddng Gi\u1ea3ng V\u00f5","full_name_en":"Giang Vo Ward","latitude":"21.0269451","longitude":"105.8180198"},{"id":"00034","name":"Th\u00e0nh C\u00f4ng","name_en":"Thanh Cong","full_name":"Ph\u01b0\u1eddng Th\u00e0nh C\u00f4ng","full_name_en":"Thanh Cong Ward","latitude":"21.0205111","longitude":"105.8152857"}]},{"id":"002","name":"Ho\u00e0n Ki\u1ebfm","name_en":"Hoan Kiem","full_name":"Qu\u1eadn Ho\u00e0n Ki\u1ebfm","full_name_en":"Hoan Kiem District","latitude":"21.0302237","longitude":"105.8523115","data3":[{"id":"00037","name":"Ph\u00fac T\u00e2n","name_en":"Phuc Tan","full_name":"Ph\u01b0\u1eddng Ph\u00fac T\u00e2n","full_name_en":"Phuc Tan Ward","latitude":"21.0363416","longitude":"105.855503"},{"id":"00040","name":"\u0110\u1ed3ng Xu\u00e2n","name_en":"Dong Xuan","full_name":"Ph\u01b0\u1eddng \u0110\u1ed3ng Xu\u00e2n","full_name_en":"Dong Xuan Ward","latitude":"21.0388537","longitude":"105.8500621"},{"id":"00043","name":"H\u00e0ng M\u00e3","name_en":"Hang Ma","full_name":"Ph\u01b0\u1eddng H\u00e0ng M\u00e3","full_name_en":"Hang Ma Ward","latitude":"21.0376748","longitude":"105.846332"},{"id":"00046","name":"H\u00e0ng Bu\u1ed3m","name_en":"Hang Buom","full_name":"Ph\u01b0\u1eddng H\u00e0ng Bu\u1ed3m","full_name_en":"Hang Buom Ward","latitude":"21.035662","longitude":"105.8523329"},{"id":"00049","name":"H\u00e0ng \u0110\u00e0o","name_en":"Hang Dao","full_name":"Ph\u01b0\u1eddng H\u00e0ng \u0110\u00e0o","full_name_en":"Hang Dao Ward","latitude":"21.0342097","longitude":"105.850201"},{"id":"00052","name":"H\u00e0ng B\u1ed3","name_en":"Hang Bo","full_name":"Ph\u01b0\u1eddng H\u00e0ng B\u1ed3","full_name_en":"Hang Bo Ward","latitude":"21.0350539","longitude":"105.8478078"},{"id":"00055","name":"C\u1eeda \u0110\u00f4ng","name_en":"Cua Dong","full_name":"Ph\u01b0\u1eddng C\u1eeda \u0110\u00f4ng","full_name_en":"Cua Dong Ward","latitude":"21.03258215","longitude":"105.84539559634864"},{"id":"00058","name":"L\u00fd Th\u00e1i T\u1ed5","name_en":"Ly Thai To","full_name":"Ph\u01b0\u1eddng L\u00fd Th\u00e1i T\u1ed5","full_name_en":"Ly Thai To Ward","latitude":"21.0312636","longitude":"105.8552522"},{"id":"00061","name":"H\u00e0ng B\u1ea1c","name_en":"Hang Bac","full_name":"Ph\u01b0\u1eddng H\u00e0ng B\u1ea1c","full_name_en":"Hang Bac Ward","latitude":"21.0337473","longitude":"105.8523179"},{"id":"00064","name":"H\u00e0ng Gai","name_en":"Hang Gai","full_name":"Ph\u01b0\u1eddng H\u00e0ng Gai","full_name_en":"Hang Gai Ward","latitude":"21.0321611","longitude":"105.8490719"},{"id":"00067","name":"Ch\u01b0\u01a1ng D\u01b0\u01a1ng","name_en":"Chuong Duong","full_name":"Ph\u01b0\u1eddng Ch\u01b0\u01a1ng D\u01b0\u01a1ng","full_name_en":"Chuong Duong Ward","latitude":"21.0259068","longitude":"105.8612108"},{"id":"00070","name":"H\u00e0ng Tr\u1ed1ng","name_en":"Hang Trong","full_name":"Ph\u01b0\u1eddng H\u00e0ng Tr\u1ed1ng","full_name_en":"Hang Trong Ward","latitude":"21.028966","longitude":"105.8505357"},{"id":"00073","name":"C\u1eeda Nam","name_en":"Cua Nam","full_name":"Ph\u01b0\u1eddng C\u1eeda Nam","full_name_en":"Cua Nam Ward","latitude":"21.0249965","longitude":"105.8423489"},{"id":"00076","name":"H\u00e0ng B\u00f4ng","name_en":"Hang Bong","full_name":"Ph\u01b0\u1eddng H\u00e0ng B\u00f4ng","full_name_en":"Hang Bong Ward","latitude":"21.0288036","longitude":"105.8458912"},{"id":"00079","name":"Tr\u00e0ng Ti\u1ec1n","name_en":"Trang Tien","full_name":"Ph\u01b0\u1eddng Tr\u00e0ng Ti\u1ec1n","full_name_en":"Trang Tien Ward","latitude":"21.025306","longitude":"105.8554601"},{"id":"00082","name":"Tr\u1ea7n H\u01b0ng \u0110\u1ea1o","name_en":"Tran Hung Dao","full_name":"Ph\u01b0\u1eddng Tr\u1ea7n H\u01b0ng \u0110\u1ea1o","full_name_en":"Tran Hung Dao Ward","latitude":"21.0230081","longitude":"105.8468195"},{"id":"00085","name":"Phan Chu Trinh","name_en":"Phan Chu Trinh","full_name":"Ph\u01b0\u1eddng Phan Chu Trinh","full_name_en":"Phan Chu Trinh Ward","latitude":"21.0210957","longitude":"105.8579407"},{"id":"00088","name":"H\u00e0ng B\u00e0i","name_en":"Hang Bai","full_name":"Ph\u01b0\u1eddng H\u00e0ng B\u00e0i","full_name_en":"Hang Bai Ward","latitude":"21.0210073","longitude":"105.85219"}]},{"id":"003","name":"T\u00e2y H\u1ed3","name_en":"Tay Ho","full_name":"Qu\u1eadn T\u00e2y H\u1ed3","full_name_en":"Tay Ho District","latitude":"21.0683576","longitude":"105.8240984","data3":[{"id":"00091","name":"Ph\u00fa Th\u01b0\u1ee3ng","name_en":"Phu Thuong","full_name":"Ph\u01b0\u1eddng Ph\u00fa Th\u01b0\u1ee3ng","full_name_en":"Phu Thuong Ward","latitude":"21.081992","longitude":"105.8073736"},{"id":"00094","name":"Nh\u1eadt T\u00e2n","name_en":"Nhat Tan","full_name":"Ph\u01b0\u1eddng Nh\u1eadt T\u00e2n","full_name_en":"Nhat Tan Ward","latitude":"21.0779203","longitude":"105.8244598"},{"id":"00097","name":"T\u1ee9 Li\u00ean","name_en":"Tu Lien","full_name":"Ph\u01b0\u1eddng T\u1ee9 Li\u00ean","full_name_en":"Tu Lien Ward","latitude":"21.0656505","longitude":"105.8377445"},{"id":"00100","name":"Qu\u1ea3ng An","name_en":"Quang An","full_name":"Ph\u01b0\u1eddng Qu\u1ea3ng An","full_name_en":"Quang An Ward","latitude":"21.0651132","longitude":"105.8256634"},{"id":"00103","name":"Xu\u00e2n La","name_en":"Xuan La","full_name":"Ph\u01b0\u1eddng Xu\u00e2n La","full_name_en":"Xuan La Ward","latitude":"21.0632614","longitude":"105.8070213"},{"id":"00106","name":"Y\u00ean Ph\u1ee5","name_en":"Yen Phu","full_name":"Ph\u01b0\u1eddng Y\u00ean Ph\u1ee5","full_name_en":"Yen Phu Ward","latitude":"21.0536973","longitude":"105.8413419"},{"id":"00109","name":"B\u01b0\u1edfi","name_en":"Buoi","full_name":"Ph\u01b0\u1eddng B\u01b0\u1edfi","full_name_en":"Buoi Ward","latitude":"21.0501972","longitude":"105.8107606"},{"id":"00112","name":"Th\u1ee5y Khu\u00ea","name_en":"Thuy Khue","full_name":"Ph\u01b0\u1eddng Th\u1ee5y Khu\u00ea","full_name_en":"Thuy Khue Ward","latitude":"21.0415726","longitude":"105.8264577"}]},{"id":"004","name":"Long Bi\u00ean","name_en":"Long Bien","full_name":"Qu\u1eadn Long Bi\u00ean","full_name_en":"Long Bien District","latitude":"21.0359662","longitude":"105.9021921","data3":[{"id":"00115","name":"Th\u01b0\u1ee3ng Thanh","name_en":"Thuong Thanh","full_name":"Ph\u01b0\u1eddng Th\u01b0\u1ee3ng Thanh","full_name_en":"Thuong Thanh Ward","latitude":"21.0658534","longitude":"105.8830616"},{"id":"00118","name":"Ng\u1ecdc Th\u1ee5y","name_en":"Ngoc Thuy","full_name":"Ph\u01b0\u1eddng Ng\u1ecdc Th\u1ee5y","full_name_en":"Ngoc Thuy Ward","latitude":"21.0601064","longitude":"105.8670441"},{"id":"00121","name":"Giang Bi\u00ean","name_en":"Giang Bien","full_name":"Ph\u01b0\u1eddng Giang Bi\u00ean","full_name_en":"Giang Bien Ward","latitude":"21.064662","longitude":"105.9176926"},{"id":"00124","name":"\u0110\u1ee9c Giang","name_en":"Duc Giang","full_name":"Ph\u01b0\u1eddng \u0110\u1ee9c Giang","full_name_en":"Duc Giang Ward","latitude":"21.0646143","longitude":"105.8977054"},{"id":"00127","name":"Vi\u1ec7t H\u01b0ng","name_en":"Viet Hung","full_name":"Ph\u01b0\u1eddng Vi\u1ec7t H\u01b0ng","full_name_en":"Viet Hung Ward","latitude":"21.0542433","longitude":"105.904724"},{"id":"00130","name":"Gia Th\u1ee5y","name_en":"Gia Thuy","full_name":"Ph\u01b0\u1eddng Gia Th\u1ee5y","full_name_en":"Gia Thuy Ward","latitude":"21.0505636","longitude":"105.8873854"},{"id":"00133","name":"Ng\u1ecdc L\u00e2m","name_en":"Ngoc Lam","full_name":"Ph\u01b0\u1eddng Ng\u1ecdc L\u00e2m","full_name_en":"Ngoc Lam Ward","latitude":"21.045761","longitude":"105.8718273"},{"id":"00136","name":"Ph\u00fac L\u1ee3i","name_en":"Phuc Loi","full_name":"Ph\u01b0\u1eddng Ph\u00fac L\u1ee3i","full_name_en":"Phuc Loi Ward","latitude":"21.0432038","longitude":"105.9251194"},{"id":"00139","name":"B\u1ed3 \u0110\u1ec1","name_en":"Bo De","full_name":"Ph\u01b0\u1eddng B\u1ed3 \u0110\u1ec1","full_name_en":"Bo De Ward","latitude":"21.0378501","longitude":"105.876133"},{"id":"00142","name":"S\u00e0i \u0110\u1ed3ng","name_en":"Sai Dong","full_name":"Ph\u01b0\u1eddng S\u00e0i \u0110\u1ed3ng","full_name_en":"Sai Dong Ward","latitude":"21.0332091","longitude":"105.9141455"},{"id":"00145","name":"Long Bi\u00ean","name_en":"Long Bien","full_name":"Ph\u01b0\u1eddng Long Bi\u00ean","full_name_en":"Long Bien Ward","latitude":"21.0209967","longitude":"105.8862185"},{"id":"00148","name":"Th\u1ea1ch B\u00e0n","name_en":"Thach Ban","full_name":"Ph\u01b0\u1eddng Th\u1ea1ch B\u00e0n","full_name_en":"Thach Ban Ward","latitude":"21.0208848","longitude":"105.9163931"},{"id":"00151","name":"Ph\u00fac \u0110\u1ed3ng","name_en":"Phuc Dong","full_name":"Ph\u01b0\u1eddng Ph\u00fac \u0110\u1ed3ng","full_name_en":"Phuc Dong Ward","latitude":"21.0395447","longitude":"105.8979468"},{"id":"00154","name":"C\u1ef1 Kh\u1ed1i","name_en":"Cu Khoi","full_name":"Ph\u01b0\u1eddng C\u1ef1 Kh\u1ed1i","full_name_en":"Cu Khoi Ward","latitude":"21.0077077","longitude":"105.90298"}]},{"id":"005","name":"C\u1ea7u Gi\u1ea5y","name_en":"Cau Giay","full_name":"Qu\u1eadn C\u1ea7u Gi\u1ea5y","full_name_en":"Cau Giay District","latitude":"21.0295015","longitude":"105.7914212","data3":[{"id":"00157","name":"Ngh\u0129a \u0110\u00f4","name_en":"Nghia Do","full_name":"Ph\u01b0\u1eddng Ngh\u0129a \u0110\u00f4","full_name_en":"Nghia Do Ward","latitude":"21.0469903","longitude":"105.8027493"},{"id":"00160","name":"Ngh\u0129a T\u00e2n","name_en":"Nghia Tan","full_name":"Ph\u01b0\u1eddng Ngh\u0129a T\u00e2n","full_name_en":"Nghia Tan Ward","latitude":"21.045681","longitude":"105.7910701"},{"id":"00163","name":"Mai D\u1ecbch","name_en":"Mai Dich","full_name":"Ph\u01b0\u1eddng Mai D\u1ecbch","full_name_en":"Mai Dich Ward","latitude":"21.0409079","longitude":"105.7750351"},{"id":"00166","name":"D\u1ecbch V\u1ecdng","name_en":"Dich Vong","full_name":"Ph\u01b0\u1eddng D\u1ecbch V\u1ecdng","full_name_en":"Dich Vong Ward","latitude":"21.0350602","longitude":"105.793398"},{"id":"00167","name":"D\u1ecbch V\u1ecdng H\u1eadu","name_en":"Dich Vong Hau","full_name":"Ph\u01b0\u1eddng D\u1ecbch V\u1ecdng H\u1eadu","full_name_en":"Dich Vong Hau Ward","latitude":"21.0365503","longitude":"105.7858195"},{"id":"00169","name":"Quan Hoa","name_en":"Quan Hoa","full_name":"Ph\u01b0\u1eddng Quan Hoa","full_name_en":"Quan Hoa Ward","latitude":"21.0369183","longitude":"105.801915"},{"id":"00172","name":"Y\u00ean Ho\u00e0","name_en":"Yen Hoa","full_name":"Ph\u01b0\u1eddng Y\u00ean Ho\u00e0","full_name_en":"Yen Hoa Ward","latitude":"21.0218105","longitude":"105.7924411"},{"id":"00175","name":"Trung Ho\u00e0","name_en":"Trung Hoa","full_name":"Ph\u01b0\u1eddng Trung Ho\u00e0","full_name_en":"Trung Hoa Ward","latitude":"21.0103232","longitude":"105.7994479"}]},{"id":"006","name":"\u0110\u1ed1ng \u0110a","name_en":"Dong Da","full_name":"Qu\u1eadn \u0110\u1ed1ng \u0110a","full_name_en":"Dong Da District","latitude":"21.0146852","longitude":"105.8235426","data3":[{"id":"00178","name":"C\u00e1t Linh","name_en":"Cat Linh","full_name":"Ph\u01b0\u1eddng C\u00e1t Linh","full_name_en":"Cat Linh Ward","latitude":"21.0290379","longitude":"105.8282952"},{"id":"00181","name":"V\u0103n Mi\u1ebfu","name_en":"Van Mieu","full_name":"Ph\u01b0\u1eddng V\u0103n Mi\u1ebfu","full_name_en":"Van Mieu Ward","latitude":"21.0264458","longitude":"105.839409"},{"id":"00184","name":"Qu\u1ed1c T\u1eed Gi\u00e1m","name_en":"Quoc Tu Giam","full_name":"Ph\u01b0\u1eddng Qu\u1ed1c T\u1eed Gi\u00e1m","full_name_en":"Quoc Tu Giam Ward","latitude":"21.0267696","longitude":"105.8325395"},{"id":"00187","name":"L\u00e1ng Th\u01b0\u1ee3ng","name_en":"Lang Thuong","full_name":"Ph\u01b0\u1eddng L\u00e1ng Th\u01b0\u1ee3ng","full_name_en":"Lang Thuong Ward","latitude":"21.0231298","longitude":"105.8045056"},{"id":"00190","name":"\u00d4 Ch\u1ee3 D\u1eeba","name_en":"O Cho Dua","full_name":"Ph\u01b0\u1eddng \u00d4 Ch\u1ee3 D\u1eeba","full_name_en":"O Cho Dua Ward","latitude":"21.0213924","longitude":"105.8250224"},{"id":"00193","name":"V\u0103n Ch\u01b0\u01a1ng","name_en":"Van Chuong","full_name":"Ph\u01b0\u1eddng V\u0103n Ch\u01b0\u01a1ng","full_name_en":"Van Chuong Ward","latitude":"21.0230988","longitude":"105.836732"},{"id":"00196","name":"H\u00e0ng B\u1ed9t","name_en":"Hang Bot","full_name":"Ph\u01b0\u1eddng H\u00e0ng B\u1ed9t","full_name_en":"Hang Bot Ward","latitude":"21.0228224","longitude":"105.8310628"},{"id":"00199","name":"L\u00e1ng H\u1ea1","name_en":"Lang Ha","full_name":"Ph\u01b0\u1eddng L\u00e1ng H\u1ea1","full_name_en":"Lang Ha Ward","latitude":"21.0148521","longitude":"105.8116394"},{"id":"00202","name":"Kh\u00e2m Thi\u00ean","name_en":"Kham Thien","full_name":"Ph\u01b0\u1eddng Kh\u00e2m Thi\u00ean","full_name_en":"Kham Thien Ward","latitude":"21.0192241","longitude":"105.8390581"},{"id":"00205","name":"Th\u1ed5 Quan","name_en":"Tho Quan","full_name":"Ph\u01b0\u1eddng Th\u1ed5 Quan","full_name_en":"Tho Quan Ward","latitude":"21.0182944","longitude":"105.8336342"},{"id":"00208","name":"Nam \u0110\u1ed3ng","name_en":"Nam Dong","full_name":"Ph\u01b0\u1eddng Nam \u0110\u1ed3ng","full_name_en":"Nam Dong Ward","latitude":"21.0142024","longitude":"105.8307418"},{"id":"00211","name":"Trung Ph\u1ee5ng","name_en":"Trung Phung","full_name":"Ph\u01b0\u1eddng Trung Ph\u1ee5ng","full_name_en":"Trung Phung Ward","latitude":"21.015852","longitude":"105.8383798"},{"id":"00214","name":"Quang Trung","name_en":"Quang Trung","full_name":"Ph\u01b0\u1eddng Quang Trung","full_name_en":"Quang Trung Ward","latitude":"21.0110941","longitude":"105.8261016"},{"id":"00217","name":"Trung Li\u1ec7t","name_en":"Trung Liet","full_name":"Ph\u01b0\u1eddng Trung Li\u1ec7t","full_name_en":"Trung Liet Ward","latitude":"21.0113515","longitude":"105.8220568"},{"id":"00220","name":"Ph\u01b0\u01a1ng Li\u00ean","name_en":"Phuong Lien","full_name":"Ph\u01b0\u1eddng Ph\u01b0\u01a1ng Li\u00ean","full_name_en":"Phuong Lien Ward","latitude":"21.0113036","longitude":"105.8374382"},{"id":"00223","name":"Th\u1ecbnh Quang","name_en":"Thinh Quang","full_name":"Ph\u01b0\u1eddng Th\u1ecbnh Quang","full_name_en":"Thinh Quang Ward","latitude":"21.0085471","longitude":"105.8174276"},{"id":"00226","name":"Trung T\u1ef1","name_en":"Trung Tu","full_name":"Ph\u01b0\u1eddng Trung T\u1ef1","full_name_en":"Trung Tu Ward","latitude":"21.0060768","longitude":"105.8315992"},{"id":"00229","name":"Kim Li\u00ean","name_en":"Kim Lien","full_name":"Ph\u01b0\u1eddng Kim Li\u00ean","full_name_en":"Kim Lien Ward","latitude":"21.0062371","longitude":"105.835247"},{"id":"00232","name":"Ph\u01b0\u01a1ng Mai","name_en":"Phuong Mai","full_name":"Ph\u01b0\u1eddng Ph\u01b0\u01a1ng Mai","full_name_en":"Phuong Mai Ward","latitude":"21.0024722","longitude":"105.8381645"},{"id":"00235","name":"Ng\u00e3 T\u01b0 S\u1edf","name_en":"Nga Tu So","full_name":"Ph\u01b0\u1eddng Ng\u00e3 T\u01b0 S\u1edf","full_name_en":"Nga Tu So Ward","latitude":"21.0044422","longitude":"105.8212709"},{"id":"00238","name":"Kh\u01b0\u01a1ng Th\u01b0\u1ee3ng","name_en":"Khuong Thuong","full_name":"Ph\u01b0\u1eddng Kh\u01b0\u01a1ng Th\u01b0\u1ee3ng","full_name_en":"Khuong Thuong Ward","latitude":"21.0022547","longitude":"105.8285089"}]},{"id":"007","name":"Hai B\u00e0 Tr\u01b0ng","name_en":"Hai Ba Trung","full_name":"Qu\u1eadn Hai B\u00e0 Tr\u01b0ng","full_name_en":"Hai Ba Trung District","latitude":"21.0064704","longitude":"105.8578519","data3":[{"id":"00241","name":"Nguy\u1ec5n Du","name_en":"Nguyen Du","full_name":"Ph\u01b0\u1eddng Nguy\u1ec5n Du","full_name_en":"Nguyen Du Ward","latitude":"21.0171685","longitude":"105.8479585"},{"id":"00244","name":"B\u1ea1ch \u0110\u1eb1ng","name_en":"Bach Dang","full_name":"Ph\u01b0\u1eddng B\u1ea1ch \u0110\u1eb1ng","full_name_en":"Bach Dang Ward","latitude":"21.0137874","longitude":"105.8632823"},{"id":"00247","name":"Ph\u1ea1m \u0110\u00ecnh H\u1ed5","name_en":"Pham Dinh Ho","full_name":"Ph\u01b0\u1eddng Ph\u1ea1m \u0110\u00ecnh H\u1ed5","full_name_en":"Pham Dinh Ho Ward","latitude":"21.0160501","longitude":"105.8565135"},{"id":"00256","name":"L\u00ea \u0110\u1ea1i H\u00e0nh","name_en":"Le Dai Hanh","full_name":"Ph\u01b0\u1eddng L\u00ea \u0110\u1ea1i H\u00e0nh","full_name_en":"Le Dai Hanh Ward","latitude":"21.011173","longitude":"105.8485322"},{"id":"00259","name":"\u0110\u1ed3ng Nh\u00e2n","name_en":"Dong Nhan","full_name":"Ph\u01b0\u1eddng \u0110\u1ed3ng Nh\u00e2n","full_name_en":"Dong Nhan Ward","latitude":"21.0118254","longitude":"105.8559955"},{"id":"00262","name":"Ph\u1ed1 Hu\u1ebf","name_en":"Pho Hue","full_name":"Ph\u01b0\u1eddng Ph\u1ed1 Hu\u1ebf","full_name_en":"Pho Hue Ward","latitude":"21.0112737","longitude":"105.8527389"},{"id":"00265","name":"\u0110\u1ed1ng M\u00e1c","name_en":"Dong Mac","full_name":"Ph\u01b0\u1eddng \u0110\u1ed1ng M\u00e1c","full_name_en":"Dong Mac Ward","latitude":"21.0113666","longitude":"105.8592805"},{"id":"00268","name":"Thanh L\u01b0\u01a1ng","name_en":"Thanh Luong","full_name":"Ph\u01b0\u1eddng Thanh L\u01b0\u01a1ng","full_name_en":"Thanh Luong Ward","latitude":"21.0058365","longitude":"105.8652448"},{"id":"00271","name":"Thanh Nh\u00e0n","name_en":"Thanh Nhan","full_name":"Ph\u01b0\u1eddng Thanh Nh\u00e0n","full_name_en":"Thanh Nhan Ward","latitude":"21.0063673","longitude":"105.8564558"},{"id":"00274","name":"C\u1ea7u D\u1ec1n","name_en":"Cau Den","full_name":"Ph\u01b0\u1eddng C\u1ea7u D\u1ec1n","full_name_en":"Cau Den Ward","latitude":"21.005945","longitude":"105.8498748"},{"id":"00277","name":"B\u00e1ch Khoa","name_en":"Bach Khoa","full_name":"Ph\u01b0\u1eddng B\u00e1ch Khoa","full_name_en":"Bach Khoa Ward","latitude":"21.0039617","longitude":"105.8461179"},{"id":"00280","name":"\u0110\u1ed3ng T\u00e2m","name_en":"Dong Tam","full_name":"Ph\u01b0\u1eddng \u0110\u1ed3ng T\u00e2m","full_name_en":"Dong Tam Ward","latitude":"20.9988653","longitude":"105.8445167"},{"id":"00283","name":"V\u0129nh Tuy","name_en":"Vinh Tuy","full_name":"Ph\u01b0\u1eddng V\u0129nh Tuy","full_name_en":"Vinh Tuy Ward","latitude":"20.998064","longitude":"105.8699226"},{"id":"00286","name":"B\u1ea1ch Mai","name_en":"Bach Mai","full_name":"Ph\u01b0\u1eddng B\u1ea1ch Mai","full_name_en":"Bach Mai Ward","latitude":"21.0004767","longitude":"105.8517351"},{"id":"00289","name":"Qu\u1ef3nh Mai","name_en":"Quynh Mai","full_name":"Ph\u01b0\u1eddng Qu\u1ef3nh Mai","full_name_en":"Quynh Mai Ward","latitude":"21.0007884","longitude":"105.8601594"},{"id":"00292","name":"Qu\u1ef3nh L\u00f4i","name_en":"Quynh Loi","full_name":"Ph\u01b0\u1eddng Qu\u1ef3nh L\u00f4i","full_name_en":"Quynh Loi Ward","latitude":"21.0003877","longitude":"105.8563399"},{"id":"00295","name":"Minh Khai","name_en":"Minh Khai","full_name":"Ph\u01b0\u1eddng Minh Khai","full_name_en":"Minh Khai Ward","latitude":"20.9962306","longitude":"105.857312"},{"id":"00298","name":"Tr\u01b0\u01a1ng \u0110\u1ecbnh","name_en":"Truong Dinh","full_name":"Ph\u01b0\u1eddng Tr\u01b0\u01a1ng \u0110\u1ecbnh","full_name_en":"Truong Dinh Ward","latitude":"20.9945382","longitude":"105.8487653"}]},{"id":"008","name":"Ho\u00e0ng Mai","name_en":"Hoang Mai","full_name":"Qu\u1eadn Ho\u00e0ng Mai","full_name_en":"Hoang Mai District","latitude":"20.9757581","longitude":"105.8626556","data3":[{"id":"00301","name":"Thanh Tr\u00ec","name_en":"Thanh Tri","full_name":"Ph\u01b0\u1eddng Thanh Tr\u00ec","full_name_en":"Thanh Tri Ward","latitude":"20.9946479","longitude":"105.8917139"},{"id":"00304","name":"V\u0129nh H\u01b0ng","name_en":"Vinh Hung","full_name":"Ph\u01b0\u1eddng V\u0129nh H\u01b0ng","full_name_en":"Vinh Hung Ward","latitude":"20.9879614","longitude":"105.8752564"},{"id":"00307","name":"\u0110\u1ecbnh C\u00f4ng","name_en":"Dinh Cong","full_name":"Ph\u01b0\u1eddng \u0110\u1ecbnh C\u00f4ng","full_name_en":"Dinh Cong Ward","latitude":"20.9826495","longitude":"105.8291858"},{"id":"00310","name":"Mai \u0110\u1ed9ng","name_en":"Mai Dong","full_name":"Ph\u01b0\u1eddng Mai \u0110\u1ed9ng","full_name_en":"Mai Dong Ward","latitude":"20.9913448","longitude":"105.8644046"},{"id":"00313","name":"T\u01b0\u01a1ng Mai","name_en":"Tuong Mai","full_name":"Ph\u01b0\u1eddng T\u01b0\u01a1ng Mai","full_name_en":"Tuong Mai Ward","latitude":"20.9879341","longitude":"105.8501758"},{"id":"00316","name":"\u0110\u1ea1i Kim","name_en":"Dai Kim","full_name":"Ph\u01b0\u1eddng \u0110\u1ea1i Kim","full_name_en":"Dai Kim Ward","latitude":"20.9730903","longitude":"105.8250742"},{"id":"00319","name":"T\u00e2n Mai","name_en":"Tan Mai","full_name":"Ph\u01b0\u1eddng T\u00e2n Mai","full_name_en":"Tan Mai Ward","latitude":"20.9829654","longitude":"105.8488998"},{"id":"00322","name":"Ho\u00e0ng V\u0103n Th\u1ee5","name_en":"Hoang Van Thu","full_name":"Ph\u01b0\u1eddng Ho\u00e0ng V\u0103n Th\u1ee5","full_name_en":"Hoang Van Thu Ward","latitude":"20.9862731","longitude":"105.858834"},{"id":"00325","name":"Gi\u00e1p B\u00e1t","name_en":"Giap Bat","full_name":"Ph\u01b0\u1eddng Gi\u00e1p B\u00e1t","full_name_en":"Giap Bat Ward","latitude":"20.9850298","longitude":"105.8431539"},{"id":"00328","name":"L\u0129nh Nam","name_en":"Linh Nam","full_name":"Ph\u01b0\u1eddng L\u0129nh Nam","full_name_en":"Linh Nam Ward","latitude":"20.9805771","longitude":"105.8912598"},{"id":"00331","name":"Th\u1ecbnh Li\u1ec7t","name_en":"Thinh Liet","full_name":"Ph\u01b0\u1eddng Th\u1ecbnh Li\u1ec7t","full_name_en":"Thinh Liet Ward","latitude":"20.9759193","longitude":"105.8502634"},{"id":"00334","name":"Tr\u1ea7n Ph\u00fa","name_en":"Tran Phu","full_name":"Ph\u01b0\u1eddng Tr\u1ea7n Ph\u00fa","full_name_en":"Tran Phu Ward","latitude":"20.9711195","longitude":"105.8832556"},{"id":"00337","name":"Ho\u00e0ng Li\u1ec7t","name_en":"Hoang Liet","full_name":"Ph\u01b0\u1eddng Ho\u00e0ng Li\u1ec7t","full_name_en":"Hoang Liet Ward","latitude":"20.962423","longitude":"105.8393925"},{"id":"00340","name":"Y\u00ean S\u1edf","name_en":"Yen So","full_name":"Ph\u01b0\u1eddng Y\u00ean S\u1edf","full_name_en":"Yen So Ward","latitude":"20.9635712","longitude":"105.8701509"}]},{"id":"009","name":"Thanh Xu\u00e2n","name_en":"Thanh Xuan","full_name":"Qu\u1eadn Thanh Xu\u00e2n","full_name_en":"Thanh Xuan District","latitude":"20.9944171","longitude":"105.8171316","data3":[{"id":"00343","name":"Nh\u00e2n Ch\u00ednh","name_en":"Nhan Chinh","full_name":"Ph\u01b0\u1eddng Nh\u00e2n Ch\u00ednh","full_name_en":"Nhan Chinh Ward","latitude":"21.0039313","longitude":"105.8046282"},{"id":"00346","name":"Th\u01b0\u1ee3ng \u0110\u00ecnh","name_en":"Thuong Dinh","full_name":"Ph\u01b0\u1eddng Th\u01b0\u1ee3ng \u0110\u00ecnh","full_name_en":"Thuong Dinh Ward","latitude":"20.9991481","longitude":"105.8144297"},{"id":"00349","name":"Kh\u01b0\u01a1ng Trung","name_en":"Khuong Trung","full_name":"Ph\u01b0\u1eddng Kh\u01b0\u01a1ng Trung","full_name_en":"Khuong Trung Ward","latitude":"20.9973125","longitude":"105.8222383"},{"id":"00352","name":"Kh\u01b0\u01a1ng Mai","name_en":"Khuong Mai","full_name":"Ph\u01b0\u1eddng Kh\u01b0\u01a1ng Mai","full_name_en":"Khuong Mai Ward","latitude":"20.9971341","longitude":"105.8290537"},{"id":"00355","name":"Thanh Xu\u00e2n Trung","name_en":"Thanh Xuan Trung","full_name":"Ph\u01b0\u1eddng Thanh Xu\u00e2n Trung","full_name_en":"Thanh Xuan Trung Ward","latitude":"20.9959112","longitude":"105.8057609"},{"id":"00358","name":"Ph\u01b0\u01a1ng Li\u1ec7t","name_en":"Phuong Liet","full_name":"Ph\u01b0\u1eddng Ph\u01b0\u01a1ng Li\u1ec7t","full_name_en":"Phuong Liet Ward","latitude":"20.9917597","longitude":"105.8383742"},{"id":"00361","name":"H\u1ea1 \u0110\u00ecnh","name_en":"Ha Dinh","full_name":"Ph\u01b0\u1eddng H\u1ea1 \u0110\u00ecnh","full_name_en":"Ha Dinh Ward","latitude":"20.9883454","longitude":"105.8103351"},{"id":"00364","name":"Kh\u01b0\u01a1ng \u0110\u00ecnh","name_en":"Khuong Dinh","full_name":"Ph\u01b0\u1eddng Kh\u01b0\u01a1ng \u0110\u00ecnh","full_name_en":"Khuong Dinh Ward","latitude":"20.9899852","longitude":"105.8197278"},{"id":"00367","name":"Thanh Xu\u00e2n B\u1eafc","name_en":"Thanh Xuan Bac","full_name":"Ph\u01b0\u1eddng Thanh Xu\u00e2n B\u1eafc","full_name_en":"Thanh Xuan Bac Ward","latitude":"20.9934307","longitude":"105.7988214"},{"id":"00370","name":"Thanh Xu\u00e2n Nam","name_en":"Thanh Xuan Nam","full_name":"Ph\u01b0\u1eddng Thanh Xu\u00e2n Nam","full_name_en":"Thanh Xuan Nam Ward","latitude":"20.9870948","longitude":"105.7997917"},{"id":"00373","name":"Kim Giang","name_en":"Kim Giang","full_name":"Ph\u01b0\u1eddng Kim Giang","full_name_en":"Kim Giang Ward","latitude":"20.9834763","longitude":"105.8125988"}]},{"id":"016","name":"S\u00f3c S\u01a1n","name_en":"Soc Son","full_name":"Huy\u1ec7n S\u00f3c S\u01a1n","full_name_en":"Soc Son District","latitude":"21.2808747","longitude":"105.82924029963563","data3":[{"id":"00376","name":"S\u00f3c S\u01a1n","name_en":"Soc Son","full_name":"Th\u1ecb tr\u1ea5n S\u00f3c S\u01a1n","full_name_en":"Soc Son Township","latitude":"21.25757345","longitude":"105.85191555509492"},{"id":"00379","name":"B\u1eafc S\u01a1n","name_en":"Bac Son","full_name":"X\u00e3 B\u1eafc S\u01a1n","full_name_en":"Bac Son Commune","latitude":"21.36094025","longitude":"105.81916664580768"},{"id":"00382","name":"Minh Tr\u00ed","name_en":"Minh Tri","full_name":"X\u00e3 Minh Tr\u00ed","full_name_en":"Minh Tri Commune","latitude":"21.2974124","longitude":"105.76271866903836"},{"id":"00385","name":"H\u1ed3ng K\u1ef3","name_en":"Hong Ky","full_name":"X\u00e3 H\u1ed3ng K\u1ef3","full_name_en":"Hong Ky Commune","latitude":"21.314613350000002","longitude":"105.84926768566108"},{"id":"00388","name":"Nam S\u01a1n","name_en":"Nam Son","full_name":"X\u00e3 Nam S\u01a1n","full_name_en":"Nam Son Commune","latitude":"21.3071051","longitude":"105.8205502"},{"id":"00391","name":"Trung Gi\u00e3","name_en":"Trung Gia","full_name":"X\u00e3 Trung Gi\u00e3","full_name_en":"Trung Gia Commune","latitude":"21.31116455","longitude":"105.87342945248216"},{"id":"00394","name":"T\u00e2n H\u01b0ng","name_en":"Tan Hung","full_name":"X\u00e3 T\u00e2n H\u01b0ng","full_name_en":"Tan Hung Commune","latitude":"21.297584","longitude":"105.8986294948445"},{"id":"00397","name":"Minh Ph\u00fa","name_en":"Minh Phu","full_name":"X\u00e3 Minh Ph\u00fa","full_name_en":"Minh Phu Commune","latitude":"21.283770699999998","longitude":"105.78376393176863"},{"id":"00400","name":"Ph\u00f9 Linh","name_en":"Phu Linh","full_name":"X\u00e3 Ph\u00f9 Linh","full_name_en":"Phu Linh Commune","latitude":"21.27969805","longitude":"105.83872114717076"},{"id":"00403","name":"B\u1eafc Ph\u00fa","name_en":"Bac Phu","full_name":"X\u00e3 B\u1eafc Ph\u00fa","full_name_en":"Bac Phu Commune","latitude":"21.27787035","longitude":"105.90200748854502"},{"id":"00406","name":"T\u00e2n Minh","name_en":"Tan Minh","full_name":"X\u00e3 T\u00e2n Minh","full_name_en":"Tan Minh Commune","latitude":"21.26826545","longitude":"105.87377922406371"},{"id":"00409","name":"Quang Ti\u1ebfn","name_en":"Quang Tien","full_name":"X\u00e3 Quang Ti\u1ebfn","full_name_en":"Quang Tien Commune","latitude":"21.251103999999998","longitude":"105.81607830839215"},{"id":"00412","name":"Hi\u1ec1n Ninh","name_en":"Hien Ninh","full_name":"X\u00e3 Hi\u1ec1n Ninh","full_name_en":"Hien Ninh Commune","latitude":"21.25833325","longitude":"105.79376443085084"},{"id":"00415","name":"T\u00e2n D\u00e2n","name_en":"Tan Dan","full_name":"X\u00e3 T\u00e2n D\u00e2n","full_name_en":"Tan Dan Commune","latitude":"21.256099499999998","longitude":"105.73377586858201"},{"id":"00418","name":"Ti\u00ean D\u01b0\u1ee3c","name_en":"Tien Duoc","full_name":"X\u00e3 Ti\u00ean D\u01b0\u1ee3c","full_name_en":"Tien Duoc Commune","latitude":"21.2482885","longitude":"105.8504446959081"},{"id":"00421","name":"Vi\u1ec7t Long","name_en":"Viet Long","full_name":"X\u00e3 Vi\u1ec7t Long","full_name_en":"Viet Long Commune","latitude":"21.25182695","longitude":"105.92016329816443"},{"id":"00424","name":"Xu\u00e2n Giang","name_en":"Xuan Giang","full_name":"X\u00e3 Xu\u00e2n Giang","full_name_en":"Xuan Giang Commune","latitude":"21.24529975","longitude":"105.89526453844752"},{"id":"00427","name":"Mai \u0110\u00ecnh","name_en":"Mai Dinh","full_name":"X\u00e3 Mai \u0110\u00ecnh","full_name_en":"Mai Dinh Commune","latitude":"21.2249542","longitude":"105.83334313633513"},{"id":"00430","name":"\u0110\u1ee9c Ho\u00e0","name_en":"Duc Hoa","full_name":"X\u00e3 \u0110\u1ee9c Ho\u00e0","full_name_en":"Duc Hoa Commune","latitude":"21.229516699999998","longitude":"105.87858712758697"},{"id":"00433","name":"Thanh Xu\u00e2n","name_en":"Thanh Xuan","full_name":"X\u00e3 Thanh Xu\u00e2n","full_name_en":"Thanh Xuan Commune","latitude":"21.224194699999998","longitude":"105.7672770757338"},{"id":"00436","name":"\u0110\u00f4ng Xu\u00e2n","name_en":"Dong Xuan","full_name":"X\u00e3 \u0110\u00f4ng Xu\u00e2n","full_name_en":"Dong Xuan Commune","latitude":"21.21578045","longitude":"105.86896397661279"},{"id":"00439","name":"Kim L\u0169","name_en":"Kim Lu","full_name":"X\u00e3 Kim L\u0169","full_name_en":"Kim Lu Commune","latitude":"21.20963675","longitude":"105.9082455855951"},{"id":"00442","name":"Ph\u00fa C\u01b0\u1eddng","name_en":"Phu Cuong","full_name":"X\u00e3 Ph\u00fa C\u01b0\u1eddng","full_name_en":"Phu Cuong Commune","latitude":"21.20532335","longitude":"105.78857682550603"},{"id":"00445","name":"Ph\u00fa Minh","name_en":"Phu Minh","full_name":"X\u00e3 Ph\u00fa Minh","full_name_en":"Phu Minh Commune","latitude":"21.20245715","longitude":"105.81357177414353"},{"id":"00448","name":"Ph\u00f9 L\u1ed7","name_en":"Phu Lo","full_name":"X\u00e3 Ph\u00f9 L\u1ed7","full_name_en":"Phu Lo Commune","latitude":"21.2016464","longitude":"105.8532277637473"},{"id":"00451","name":"Xu\u00e2n Thu","name_en":"Xuan Thu","full_name":"X\u00e3 Xu\u00e2n Thu","full_name_en":"Xuan Thu Commune","latitude":"21.1957582","longitude":"105.89535345615457"}]},{"id":"017","name":"\u0110\u00f4ng Anh","name_en":"Dong Anh","full_name":"Huy\u1ec7n \u0110\u00f4ng Anh","full_name_en":"Dong Anh District","latitude":"21.1367358","longitude":"105.84603245401874","data3":[{"id":"00454","name":"\u0110\u00f4ng Anh","name_en":"Dong Anh","full_name":"Th\u1ecb tr\u1ea5n \u0110\u00f4ng Anh","full_name_en":"Dong Anh Township","latitude":"21.1373774","longitude":"105.8610924"},{"id":"00457","name":"Xu\u00e2n N\u1ed9n","name_en":"Xuan Non","full_name":"X\u00e3 Xu\u00e2n N\u1ed9n","full_name_en":"Xuan Non Commune","latitude":"","longitude":""},{"id":"00460","name":"Thu\u1ef5 L\u00e2m","name_en":"Thuy Lam","full_name":"X\u00e3 Thu\u1ef5 L\u00e2m","full_name_en":"Thuy Lam Commune","latitude":"21.1728601","longitude":"105.8960511"},{"id":"00463","name":"B\u1eafc H\u1ed3ng","name_en":"Bac Hong","full_name":"X\u00e3 B\u1eafc H\u1ed3ng","full_name_en":"Bac Hong Commune","latitude":"21.168757","longitude":"105.8034708"},{"id":"00466","name":"Nguy\u00ean Kh\u00ea","name_en":"Nguyen Khe","full_name":"X\u00e3 Nguy\u00ean Kh\u00ea","full_name_en":"Nguyen Khe Commune","latitude":"21.1781004","longitude":"105.8204312"},{"id":"00469","name":"Nam H\u1ed3ng","name_en":"Nam Hong","full_name":"X\u00e3 Nam H\u1ed3ng","full_name_en":"Nam Hong Commune","latitude":"21.1682916","longitude":"105.7876304"},{"id":"00472","name":"Ti\u00ean D\u01b0\u01a1ng","name_en":"Tien Duong","full_name":"X\u00e3 Ti\u00ean D\u01b0\u01a1ng","full_name_en":"Tien Duong Commune","latitude":"21.1502279","longitude":"105.8355655"},{"id":"00475","name":"V\u00e2n H\u00e0","name_en":"Van Ha","full_name":"X\u00e3 V\u00e2n H\u00e0","full_name_en":"Van Ha Commune","latitude":"21.1432893","longitude":"105.9186019"},{"id":"00478","name":"Uy N\u1ed7","name_en":"Uy No","full_name":"X\u00e3 Uy N\u1ed7","full_name_en":"Uy No Commune","latitude":"","longitude":""},{"id":"00481","name":"V\u00e2n N\u1ed9i","name_en":"Van Noi","full_name":"X\u00e3 V\u00e2n N\u1ed9i","full_name_en":"Van Noi Commune","latitude":"21.1521723","longitude":"105.8158703"},{"id":"00484","name":"Li\u00ean H\u00e0","name_en":"Lien Ha","full_name":"X\u00e3 Li\u00ean H\u00e0","full_name_en":"Lien Ha Commune","latitude":"","longitude":""},{"id":"00487","name":"Vi\u1ec7t H\u00f9ng","name_en":"Viet Hung","full_name":"X\u00e3 Vi\u1ec7t H\u00f9ng","full_name_en":"Viet Hung Commune","latitude":"21.1404443","longitude":"105.875509"},{"id":"00490","name":"Kim N\u1ed7","name_en":"Kim No","full_name":"X\u00e3 Kim N\u1ed7","full_name_en":"Kim No Commune","latitude":"","longitude":""},{"id":"00493","name":"Kim Chung","name_en":"Kim Chung","full_name":"X\u00e3 Kim Chung","full_name_en":"Kim Chung Commune","latitude":"21.1373973","longitude":"105.76910460377405"},{"id":"00496","name":"D\u1ee5c T\u00fa","name_en":"Duc Tu","full_name":"X\u00e3 D\u1ee5c T\u00fa","full_name_en":"Duc Tu Commune","latitude":"","longitude":""},{"id":"00499","name":"\u0110\u1ea1i M\u1ea1ch","name_en":"Dai Mach","full_name":"X\u00e3 \u0110\u1ea1i M\u1ea1ch","full_name_en":"Dai Mach Commune","latitude":"21.1274964","longitude":"105.75794857683259"},{"id":"00502","name":"V\u0129nh Ng\u1ecdc","name_en":"Vinh Ngoc","full_name":"X\u00e3 V\u0129nh Ng\u1ecdc","full_name_en":"Vinh Ngoc Commune","latitude":"21.1152806","longitude":"105.8251653"},{"id":"00505","name":"C\u1ed5 Loa","name_en":"Co Loa","full_name":"X\u00e3 C\u1ed5 Loa","full_name_en":"Co Loa Commune","latitude":"21.1199756","longitude":"105.8733527"},{"id":"00508","name":"H\u1ea3i B\u1ed1i","name_en":"Hai Boi","full_name":"X\u00e3 H\u1ea3i B\u1ed1i","full_name_en":"Hai Boi Commune","latitude":"21.1108262","longitude":"105.802166"},{"id":"00511","name":"Xu\u00e2n Canh","name_en":"Xuan Canh","full_name":"X\u00e3 Xu\u00e2n Canh","full_name_en":"Xuan Canh Commune","latitude":"21.093694149999997","longitude":"105.85497148165112"},{"id":"00514","name":"V\u00f5ng La","name_en":"Vong La","full_name":"X\u00e3 V\u00f5ng La","full_name_en":"Vong La Commune","latitude":"21.1160267","longitude":"105.7617368"},{"id":"00517","name":"T\u00e0m X\u00e1","name_en":"Tam Xa","full_name":"X\u00e3 T\u00e0m X\u00e1","full_name_en":"Tam Xa Commune","latitude":"21.1110154","longitude":"105.8438085"},{"id":"00520","name":"Mai L\u00e2m","name_en":"Mai Lam","full_name":"X\u00e3 Mai L\u00e2m","full_name_en":"Mai Lam Commune","latitude":"21.1005587","longitude":"105.88341775467381"},{"id":"00523","name":"\u0110\u00f4ng H\u1ed9i","name_en":"Dong Hoi","full_name":"X\u00e3 \u0110\u00f4ng H\u1ed9i","full_name_en":"Dong Hoi Commune","latitude":"21.13968625","longitude":"105.85185525879011"}]},{"id":"018","name":"Gia L\u00e2m","name_en":"Gia Lam","full_name":"Huy\u1ec7n Gia L\u00e2m","full_name_en":"Gia Lam District","latitude":"21.0238721","longitude":"105.97050129109073","data3":[{"id":"00526","name":"Y\u00ean Vi\u00ean","name_en":"Yen Vien","full_name":"Th\u1ecb tr\u1ea5n Y\u00ean Vi\u00ean","full_name_en":"Yen Vien Township","latitude":"21.086578","longitude":"105.9190616"},{"id":"00529","name":"Y\u00ean Th\u01b0\u1eddng","name_en":"Yen Thuong","full_name":"X\u00e3 Y\u00ean Th\u01b0\u1eddng","full_name_en":"Yen Thuong Commune","latitude":"21.10421585","longitude":"105.9173072561035"},{"id":"00532","name":"Y\u00ean Vi\u00ean","name_en":"Yen Vien","full_name":"X\u00e3 Y\u00ean Vi\u00ean","full_name_en":"Yen Vien Commune","latitude":"21.07877345","longitude":"105.92006080710661"},{"id":"00535","name":"Ninh Hi\u1ec7p","name_en":"Ninh Hiep","full_name":"X\u00e3 Ninh Hi\u1ec7p","full_name_en":"Ninh Hiep Commune","latitude":"21.078451649999998","longitude":"105.95087936482304"},{"id":"00538","name":"\u0110\u00ecnh Xuy\u00ean","name_en":"Dinh Xuyen","full_name":"X\u00e3 \u0110\u00ecnh Xuy\u00ean","full_name_en":"Dinh Xuyen Commune","latitude":"21.0770003","longitude":"105.93610030309904"},{"id":"00541","name":"D\u01b0\u01a1ng H\u00e0","name_en":"Duong Ha","full_name":"X\u00e3 D\u01b0\u01a1ng H\u00e0","full_name_en":"Duong Ha Commune","latitude":"21.0641847","longitude":"105.93383925598862"},{"id":"00544","name":"Ph\u00f9 \u0110\u1ed5ng","name_en":"Phu Dong","full_name":"X\u00e3 Ph\u00f9 \u0110\u1ed5ng","full_name_en":"Phu Dong Commune","latitude":"21.05605395","longitude":"105.9602789389628"},{"id":"00547","name":"Trung M\u1ea7u","name_en":"Trung Mau","full_name":"X\u00e3 Trung M\u1ea7u","full_name_en":"Trung Mau Commune","latitude":"21.059556999999998","longitude":"105.98674742104743"},{"id":"00550","name":"L\u1ec7 Chi","name_en":"Le Chi","full_name":"X\u00e3 L\u1ec7 Chi","full_name_en":"Le Chi Commune","latitude":"21.039526","longitude":"106.0028314"},{"id":"00553","name":"C\u1ed5 Bi","name_en":"Co Bi","full_name":"X\u00e3 C\u1ed5 Bi","full_name_en":"Co Bi Commune","latitude":"21.031629549999998","longitude":"105.94076915714439"},{"id":"00556","name":"\u0110\u1eb7ng X\u00e1","name_en":"Dang Xa","full_name":"X\u00e3 \u0110\u1eb7ng X\u00e1","full_name_en":"Dang Xa Commune","latitude":"21.0314557","longitude":"105.95718666771745"},{"id":"00559","name":"Ph\u00fa Th\u1ecb","name_en":"Phu Thi","full_name":"X\u00e3 Ph\u00fa Th\u1ecb","full_name_en":"Phu Thi Commune","latitude":"21.0259381","longitude":"105.97312246590717"},{"id":"00562","name":"Kim S\u01a1n","name_en":"Kim Son","full_name":"X\u00e3 Kim S\u01a1n","full_name_en":"Kim Son Commune","latitude":"21.0264624","longitude":"105.99409543994241"},{"id":"00565","name":"Tr\u00e2u Qu\u1ef3","name_en":"Trau Quy","full_name":"Th\u1ecb tr\u1ea5n Tr\u00e2u Qu\u1ef3","full_name_en":"Trau Quy Township","latitude":"21.0097832","longitude":"105.9380275"},{"id":"00568","name":"D\u01b0\u01a1ng Quang","name_en":"Duong Quang","full_name":"X\u00e3 D\u01b0\u01a1ng Quang","full_name_en":"Duong Quang Commune","latitude":"21.0045144","longitude":"105.9811592"},{"id":"00571","name":"D\u01b0\u01a1ng X\u00e1","name_en":"Duong Xa","full_name":"X\u00e3 D\u01b0\u01a1ng X\u00e1","full_name_en":"Duong Xa Commune","latitude":"21.0046345","longitude":"105.970087"},{"id":"00574","name":"\u0110\u00f4ng D\u01b0","name_en":"Dong Du","full_name":"X\u00e3 \u0110\u00f4ng D\u01b0","full_name_en":"Dong Du Commune","latitude":"20.9947786","longitude":"105.9151553"},{"id":"00577","name":"\u0110a T\u1ed1n","name_en":"Da Ton","full_name":"X\u00e3 \u0110a T\u1ed1n","full_name_en":"Da Ton Commune","latitude":"20.9862042","longitude":"105.930004"},{"id":"00580","name":"Ki\u00eau K\u1ef5","name_en":"Kieu Ky","full_name":"X\u00e3 Ki\u00eau K\u1ef5","full_name_en":"Kieu Ky Commune","latitude":"20.9825579","longitude":"105.9564399"},{"id":"00583","name":"B\u00e1t Tr\u00e0ng","name_en":"Bat Trang","full_name":"X\u00e3 B\u00e1t Tr\u00e0ng","full_name_en":"Bat Trang Commune","latitude":"20.9796328","longitude":"105.9146403"},{"id":"00586","name":"Kim Lan","name_en":"Kim Lan","full_name":"X\u00e3 Kim Lan","full_name_en":"Kim Lan Commune","latitude":"20.9628824","longitude":"105.9050273"},{"id":"00589","name":"V\u0103n \u0110\u1ee9c","name_en":"Van Duc","full_name":"X\u00e3 V\u0103n \u0110\u1ee9c","full_name_en":"Van Duc Commune","latitude":"20.9453285","longitude":"105.9004783"}]},{"id":"019","name":"Nam T\u1eeb Li\u00eam","name_en":"Nam Tu Liem","full_name":"Qu\u1eadn Nam T\u1eeb Li\u00eam","full_name_en":"Nam Tu Liem District","latitude":"21.0173512","longitude":"105.7613329","data3":[{"id":"00592","name":"C\u1ea7u Di\u1ec5n","name_en":"Cau Dien","full_name":"Ph\u01b0\u1eddng C\u1ea7u Di\u1ec5n","full_name_en":"Cau Dien Ward","latitude":"21.0345973","longitude":"105.7625765"},{"id":"00622","name":"Xu\u00e2n Ph\u01b0\u01a1ng","name_en":"Xuan Phuong","full_name":"Ph\u01b0\u1eddng Xu\u00e2n Ph\u01b0\u01a1ng","full_name_en":"Xuan Phuong Ward","latitude":"21.0287352","longitude":"105.7474443"},{"id":"00623","name":"Ph\u01b0\u01a1ng Canh","name_en":"Phuong Canh","full_name":"Ph\u01b0\u1eddng Ph\u01b0\u01a1ng Canh","full_name_en":"Phuong Canh Ward","latitude":"21.0426922","longitude":"105.7390327"},{"id":"00625","name":"M\u1ef9 \u0110\u00ecnh 1","name_en":"My Dinh 1","full_name":"Ph\u01b0\u1eddng M\u1ef9 \u0110\u00ecnh 1","full_name_en":"Ward My Dinh 1","latitude":"21.021042","longitude":"105.7690213"},{"id":"00626","name":"M\u1ef9 \u0110\u00ecnh 2","name_en":"My Dinh 2","full_name":"Ph\u01b0\u1eddng M\u1ef9 \u0110\u00ecnh 2","full_name_en":"Ward My Dinh 2","latitude":"21.0282405","longitude":"105.7746453"},{"id":"00628","name":"T\u00e2y M\u1ed7","name_en":"Tay Mo","full_name":"Ph\u01b0\u1eddng T\u00e2y M\u1ed7","full_name_en":"Tay Mo Ward","latitude":"21.0096762","longitude":"105.7445572"},{"id":"00631","name":"M\u1ec5 Tr\u00ec","name_en":"Me Tri","full_name":"Ph\u01b0\u1eddng M\u1ec5 Tr\u00ec","full_name_en":"Me Tri Ward","latitude":"21.0081098","longitude":"105.7792886"},{"id":"00632","name":"Ph\u00fa \u0110\u00f4","name_en":"Phu Do","full_name":"Ph\u01b0\u1eddng Ph\u00fa \u0110\u00f4","full_name_en":"Phu Do Ward","latitude":"21.0093455","longitude":"105.7663513"},{"id":"00634","name":"\u0110\u1ea1i M\u1ed7","name_en":"Dai Mo","full_name":"Ph\u01b0\u1eddng \u0110\u1ea1i M\u1ed7","full_name_en":"Dai Mo Ward","latitude":"20.9932717","longitude":"105.7630172"},{"id":"00637","name":"Trung V\u0103n","name_en":"Trung Van","full_name":"Ph\u01b0\u1eddng Trung V\u0103n","full_name_en":"Trung Van Ward","latitude":"20.9921504","longitude":"105.7838655"}]},{"id":"020","name":"Thanh Tr\u00ec","name_en":"Thanh Tri","full_name":"Huy\u1ec7n Thanh Tr\u00ec","full_name_en":"Thanh Tri District","latitude":"20.9408967","longitude":"105.83650808063207","data3":[{"id":"00640","name":"V\u0103n \u0110i\u1ec3n","name_en":"Van Dien","full_name":"Th\u1ecb tr\u1ea5n V\u0103n \u0110i\u1ec3n","full_name_en":"Van Dien Township","latitude":"20.9475092","longitude":"105.8453274"},{"id":"00643","name":"T\u00e2n Tri\u1ec1u","name_en":"Tan Trieu","full_name":"X\u00e3 T\u00e2n Tri\u1ec1u","full_name_en":"Tan Trieu Commune","latitude":"20.9770834","longitude":"105.8042144"},{"id":"00646","name":"Thanh Li\u1ec7t","name_en":"Thanh Liet","full_name":"X\u00e3 Thanh Li\u1ec7t","full_name_en":"Thanh Liet Commune","latitude":"20.9647474","longitude":"105.813641"},{"id":"00649","name":"T\u1ea3 Thanh Oai","name_en":"Ta Thanh Oai","full_name":"X\u00e3 T\u1ea3 Thanh Oai","full_name_en":"Ta Thanh Oai Commune","latitude":"20.9346465","longitude":"105.81001730911518"},{"id":"00652","name":"H\u1eefu Ho\u00e0","name_en":"Huu Hoa","full_name":"X\u00e3 H\u1eefu Ho\u00e0","full_name_en":"Huu Hoa Commune","latitude":"20.9518721","longitude":"105.8045726251298"},{"id":"00655","name":"Tam Hi\u1ec7p","name_en":"Tam Hiep","full_name":"X\u00e3 Tam Hi\u1ec7p","full_name_en":"Tam Hiep Commune","latitude":"20.9516283","longitude":"105.8326706"},{"id":"00658","name":"T\u1ee9 Hi\u1ec7p","name_en":"Tu Hiep","full_name":"X\u00e3 T\u1ee9 Hi\u1ec7p","full_name_en":"Tu Hiep Commune","latitude":"20.946274850000002","longitude":"105.85527110000001"},{"id":"00661","name":"Y\u00ean M\u1ef9","name_en":"Yen My","full_name":"X\u00e3 Y\u00ean M\u1ef9","full_name_en":"Yen My Commune","latitude":"20.9457365","longitude":"105.8716479"},{"id":"00664","name":"V\u0129nh Qu\u1ef3nh","name_en":"Vinh Quynh","full_name":"X\u00e3 V\u0129nh Qu\u1ef3nh","full_name_en":"Vinh Quynh Commune","latitude":"20.9332014","longitude":"105.83380008079385"},{"id":"00667","name":"Ng\u0169 Hi\u1ec7p","name_en":"Ngu Hiep","full_name":"X\u00e3 Ng\u0169 Hi\u1ec7p","full_name_en":"Ngu Hiep Commune","latitude":"20.92694445","longitude":"105.85520911144678"},{"id":"00670","name":"Duy\u00ean H\u00e0","name_en":"Duyen Ha","full_name":"X\u00e3 Duy\u00ean H\u00e0","full_name_en":"Duyen Ha Commune","latitude":"20.92823935","longitude":"105.87255046310588"},{"id":"00673","name":"Ng\u1ecdc H\u1ed3i","name_en":"Ngoc Hoi","full_name":"X\u00e3 Ng\u1ecdc H\u1ed3i","full_name_en":"Ngoc Hoi Commune","latitude":"","longitude":""},{"id":"00676","name":"V\u1ea1n Ph\u00fac","name_en":"Van Phuc","full_name":"X\u00e3 V\u1ea1n Ph\u00fac","full_name_en":"Van Phuc Commune","latitude":"20.9137967","longitude":"105.8912525"},{"id":"00679","name":"\u0110\u1ea1i \u00e1ng","name_en":"Dai ang","full_name":"X\u00e3 \u0110\u1ea1i \u00e1ng","full_name_en":"Dai ang Commune","latitude":"20.8966137","longitude":"105.8256114"},{"id":"00682","name":"Li\u00ean Ninh","name_en":"Lien Ninh","full_name":"X\u00e3 Li\u00ean Ninh","full_name_en":"Lien Ninh Commune","latitude":"20.9099087","longitude":"105.85646375171737"},{"id":"00685","name":"\u0110\u00f4ng M\u1ef9","name_en":"Dong My","full_name":"X\u00e3 \u0110\u00f4ng M\u1ef9","full_name_en":"Dong My Commune","latitude":"20.9166454","longitude":"105.8722992"}]},{"id":"021","name":"B\u1eafc T\u1eeb Li\u00eam","name_en":"Bac Tu Liem","full_name":"Qu\u1eadn B\u1eafc T\u1eeb Li\u00eam","full_name_en":"Bac Tu Liem District","latitude":"21.0712548","longitude":"105.7644855","data3":[{"id":"00595","name":"Th\u01b0\u1ee3ng C\u00e1t","name_en":"Thuong Cat","full_name":"Ph\u01b0\u1eddng Th\u01b0\u1ee3ng C\u00e1t","full_name_en":"Thuong Cat Ward","latitude":"21.0913325","longitude":"105.73538"},{"id":"00598","name":"Li\u00ean M\u1ea1c","name_en":"Lien Mac","full_name":"Ph\u01b0\u1eddng Li\u00ean M\u1ea1c","full_name_en":"Lien Mac Ward","latitude":"21.084938","longitude":"105.7541724"},{"id":"00601","name":"\u0110\u00f4ng Ng\u1ea1c","name_en":"Dong Ngac","full_name":"Ph\u01b0\u1eddng \u0110\u00f4ng Ng\u1ea1c","full_name_en":"Dong Ngac Ward","latitude":"21.0887962","longitude":"105.7852886"},{"id":"00602","name":"\u0110\u1ee9c Th\u1eafng","name_en":"Duc Thang","full_name":"Ph\u01b0\u1eddng \u0110\u1ee9c Th\u1eafng","full_name_en":"Duc Thang Ward","latitude":"21.078175","longitude":"105.7759044"},{"id":"00604","name":"Th\u1ee5y Ph\u01b0\u01a1ng","name_en":"Thuy Phuong","full_name":"Ph\u01b0\u1eddng Th\u1ee5y Ph\u01b0\u01a1ng","full_name_en":"Thuy Phuong Ward","latitude":"21.0809809","longitude":"105.7668226"},{"id":"00607","name":"T\u00e2y T\u1ef1u","name_en":"Tay Tuu","full_name":"Ph\u01b0\u1eddng T\u00e2y T\u1ef1u","full_name_en":"Tay Tuu Ward","latitude":"21.0706439","longitude":"105.7340397"},{"id":"00610","name":"Xu\u00e2n \u0110\u1ec9nh","name_en":"Xuan Dinh","full_name":"Ph\u01b0\u1eddng Xu\u00e2n \u0110\u1ec9nh","full_name_en":"Xuan Dinh Ward","latitude":"21.0748042","longitude":"105.7906068"},{"id":"00611","name":"Xu\u00e2n T\u1ea3o","name_en":"Xuan Tao","full_name":"Ph\u01b0\u1eddng Xu\u00e2n T\u1ea3o","full_name_en":"Xuan Tao Ward","latitude":"21.0611692","longitude":"105.7942037"},{"id":"00613","name":"Minh Khai","name_en":"Minh Khai","full_name":"Ph\u01b0\u1eddng Minh Khai","full_name_en":"Minh Khai Ward","latitude":"21.0603661","longitude":"105.7475631"},{"id":"00616","name":"C\u1ed5 Nhu\u1ebf 1","name_en":"Co Nhue 1","full_name":"Ph\u01b0\u1eddng C\u1ed5 Nhu\u1ebf 1","full_name_en":"Ward Co Nhue 1","latitude":"21.0511128","longitude":"105.7833144"},{"id":"00617","name":"C\u1ed5 Nhu\u1ebf 2","name_en":"Co Nhue 2","full_name":"Ph\u01b0\u1eddng C\u1ed5 Nhu\u1ebf 2","full_name_en":"Ward Co Nhue 2","latitude":"21.0650823","longitude":"105.7722035"},{"id":"00619","name":"Ph\u00fa Di\u1ec5n","name_en":"Phu Dien","full_name":"Ph\u01b0\u1eddng Ph\u00fa Di\u1ec5n","full_name_en":"Phu Dien Ward","latitude":"21.0513072","longitude":"105.7634638"},{"id":"00620","name":"Ph\u00fac Di\u1ec5n","name_en":"Phuc Dien","full_name":"Ph\u01b0\u1eddng Ph\u00fac Di\u1ec5n","full_name_en":"Phuc Dien Ward","latitude":"21.0471983","longitude":"105.7517539"}]},{"id":"250","name":"M\u00ea Linh","name_en":"Me Linh","full_name":"Huy\u1ec7n M\u00ea Linh","full_name_en":"Me Linh District","latitude":"21.18078845","longitude":"105.70725700576077","data3":[{"id":"08973","name":"Chi \u0110\u00f4ng","name_en":"Chi Dong","full_name":"Th\u1ecb tr\u1ea5n Chi \u0110\u00f4ng","full_name_en":"Chi Dong Township","latitude":"21.2125145","longitude":"105.7551218"},{"id":"08974","name":"\u0110\u1ea1i Th\u1ecbnh","name_en":"Dai Thinh","full_name":"X\u00e3 \u0110\u1ea1i Th\u1ecbnh","full_name_en":"Dai Thinh Commune","latitude":"21.1792298","longitude":"105.7273266"},{"id":"08977","name":"Kim Hoa","name_en":"Kim Hoa","full_name":"X\u00e3 Kim Hoa","full_name_en":"Kim Hoa Commune","latitude":"","longitude":""},{"id":"08980","name":"Th\u1ea1ch \u0110\u00e0","name_en":"Thach Da","full_name":"X\u00e3 Th\u1ea1ch \u0110\u00e0","full_name_en":"Thach Da Commune","latitude":"21.1774711","longitude":"105.6770901"},{"id":"08983","name":"Ti\u1ebfn Th\u1eafng","name_en":"Tien Thang","full_name":"X\u00e3 Ti\u1ebfn Th\u1eafng","full_name_en":"Tien Thang Commune","latitude":"21.1507696","longitude":"105.7570684"},{"id":"08986","name":"T\u1ef1 L\u1eadp","name_en":"Tu Lap","full_name":"X\u00e3 T\u1ef1 L\u1eadp","full_name_en":"Tu Lap Commune","latitude":"21.2106437","longitude":"105.6616955"},{"id":"08989","name":"Quang Minh","name_en":"Quang Minh","full_name":"Th\u1ecb tr\u1ea5n Quang Minh","full_name_en":"Quang Minh Township","latitude":"21.2125145","longitude":"105.7551218"},{"id":"08992","name":"Thanh L\u00e2m","name_en":"Thanh Lam","full_name":"X\u00e3 Thanh L\u00e2m","full_name_en":"Thanh Lam Commune","latitude":"","longitude":""},{"id":"08995","name":"Tam \u0110\u1ed3ng","name_en":"Tam Dong","full_name":"X\u00e3 Tam \u0110\u1ed3ng","full_name_en":"Tam Dong Commune","latitude":"21.191111","longitude":"105.681968"},{"id":"08998","name":"Li\u00ean M\u1ea1c","name_en":"Lien Mac","full_name":"X\u00e3 Li\u00ean M\u1ea1c","full_name_en":"Lien Mac Commune","latitude":"21.18879015","longitude":"105.66083175737387"},{"id":"09001","name":"V\u1ea1n Y\u00ean","name_en":"Van Yen","full_name":"X\u00e3 V\u1ea1n Y\u00ean","full_name_en":"Van Yen Commune","latitude":"","longitude":""},{"id":"09004","name":"Chu Phan","name_en":"Chu Phan","full_name":"X\u00e3 Chu Phan","full_name_en":"Chu Phan Commune","latitude":"","longitude":""},{"id":"09007","name":"Ti\u1ebfn Th\u1ecbnh","name_en":"Tien Thinh","full_name":"X\u00e3 Ti\u1ebfn Th\u1ecbnh","full_name_en":"Tien Thinh Commune","latitude":"","longitude":""},{"id":"09010","name":"M\u00ea Linh","name_en":"Me Linh","full_name":"X\u00e3 M\u00ea Linh","full_name_en":"Me Linh Commune","latitude":"21.1630482","longitude":"105.73673723364888"},{"id":"09013","name":"V\u0103n Kh\u00ea","name_en":"Van Khe","full_name":"X\u00e3 V\u0103n Kh\u00ea","full_name_en":"Van Khe Commune","latitude":"21.1609189","longitude":"105.712044"},{"id":"09016","name":"Ho\u00e0ng Kim","name_en":"Hoang Kim","full_name":"X\u00e3 Ho\u00e0ng Kim","full_name_en":"Hoang Kim Commune","latitude":"21.1684149","longitude":"105.6885729"},{"id":"09019","name":"Ti\u1ec1n Phong","name_en":"Tien Phong","full_name":"X\u00e3 Ti\u1ec1n Phong","full_name_en":"Tien Phong Commune","latitude":"21.15018","longitude":"105.7574124"},{"id":"09022","name":"Tr\u00e1ng Vi\u1ec7t","name_en":"Trang Viet","full_name":"X\u00e3 Tr\u00e1ng Vi\u1ec7t","full_name_en":"Trang Viet Commune","latitude":"21.1467697","longitude":"105.7414677"}]},{"id":"268","name":"H\u00e0 \u0110\u00f4ng","name_en":"Ha Dong","full_name":"Qu\u1eadn H\u00e0 \u0110\u00f4ng","full_name_en":"Ha Dong District","latitude":"20.9551855","longitude":"105.758011","data3":[{"id":"09538","name":"Nguy\u1ec5n Tr\u00e3i","name_en":"Nguyen Trai","full_name":"Ph\u01b0\u1eddng Nguy\u1ec5n Tr\u00e3i","full_name_en":"Nguyen Trai Ward","latitude":"20.9697375","longitude":"105.7804485"},{"id":"09541","name":"M\u1ed9 Lao","name_en":"Mo Lao","full_name":"Ph\u01b0\u1eddng M\u1ed9 Lao","full_name_en":"Mo Lao Ward","latitude":"20.9821715","longitude":"105.7842539"},{"id":"09542","name":"V\u0103n Qu\u00e1n","name_en":"Van Quan","full_name":"Ph\u01b0\u1eddng V\u0103n Qu\u00e1n","full_name_en":"Van Quan Ward","latitude":"20.9783124","longitude":"105.7902096"},{"id":"09544","name":"V\u1ea1n Ph\u00fac","name_en":"Van Phuc","full_name":"Ph\u01b0\u1eddng V\u1ea1n Ph\u00fac","full_name_en":"Van Phuc Ward","latitude":"20.9803136","longitude":"105.7719148"},{"id":"09547","name":"Y\u1ebft Ki\u00eau","name_en":"Yet Kieu","full_name":"Ph\u01b0\u1eddng Y\u1ebft Ki\u00eau","full_name_en":"Yet Kieu Ward","latitude":"20.9747299","longitude":"105.7777427"},{"id":"09550","name":"Quang Trung","name_en":"Quang Trung","full_name":"Ph\u01b0\u1eddng Quang Trung","full_name_en":"Quang Trung Ward","latitude":"20.971131","longitude":"105.7714768"},{"id":"09551","name":"La Kh\u00ea","name_en":"La Khe","full_name":"Ph\u01b0\u1eddng La Kh\u00ea","full_name_en":"La Khe Ward","latitude":"20.9696783","longitude":"105.7601018"},{"id":"09552","name":"Ph\u00fa La","name_en":"Phu La","full_name":"Ph\u01b0\u1eddng Ph\u00fa La","full_name_en":"Phu La Ward","latitude":"20.9580348","longitude":"105.7641533"},{"id":"09553","name":"Ph\u00fac La","name_en":"Phuc La","full_name":"Ph\u01b0\u1eddng Ph\u00fac La","full_name_en":"Phuc La Ward","latitude":"20.9675836","longitude":"105.7895084"},{"id":"09556","name":"H\u00e0 C\u1ea7u","name_en":"Ha Cau","full_name":"Ph\u01b0\u1eddng H\u00e0 C\u1ea7u","full_name_en":"Ha Cau Ward","latitude":"20.964938699999998","longitude":"105.77828177668673"},{"id":"09562","name":"Y\u00ean Ngh\u0129a","name_en":"Yen Nghia","full_name":"Ph\u01b0\u1eddng Y\u00ean Ngh\u0129a","full_name_en":"Yen Nghia Ward","latitude":"20.951446","longitude":"105.7351127"},{"id":"09565","name":"Ki\u1ebfn H\u01b0ng","name_en":"Kien Hung","full_name":"Ph\u01b0\u1eddng Ki\u1ebfn H\u01b0ng","full_name_en":"Kien Hung Ward","latitude":"20.9527894","longitude":"105.7875583"},{"id":"09568","name":"Ph\u00fa L\u00e3m","name_en":"Phu Lam","full_name":"Ph\u01b0\u1eddng Ph\u00fa L\u00e3m","full_name_en":"Phu Lam Ward","latitude":"20.9426807","longitude":"105.7526272"},{"id":"09571","name":"Ph\u00fa L\u01b0\u01a1ng","name_en":"Phu Luong","full_name":"Ph\u01b0\u1eddng Ph\u00fa L\u01b0\u01a1ng","full_name_en":"Phu Luong Ward","latitude":"20.9397761","longitude":"105.77085"},{"id":"09886","name":"D\u01b0\u01a1ng N\u1ed9i","name_en":"Duong Noi","full_name":"Ph\u01b0\u1eddng D\u01b0\u01a1ng N\u1ed9i","full_name_en":"Duong Noi Ward","latitude":"20.9809284","longitude":"105.74637"},{"id":"10117","name":"\u0110\u1ed3ng Mai","name_en":"Dong Mai","full_name":"Ph\u01b0\u1eddng \u0110\u1ed3ng Mai","full_name_en":"Dong Mai Ward","latitude":"20.9281504","longitude":"105.7396539"},{"id":"10123","name":"Bi\u00ean Giang","name_en":"Bien Giang","full_name":"Ph\u01b0\u1eddng Bi\u00ean Giang","full_name_en":"Bien Giang Ward","latitude":"20.9295202","longitude":"105.7223742"}]},{"id":"269","name":"S\u01a1n T\u00e2y","name_en":"Son Tay","full_name":"Th\u1ecb x\u00e3 S\u01a1n T\u00e2y","full_name_en":"Son Tay Town","latitude":"21.1386671","longitude":"105.5056335","data3":[{"id":"09574","name":"L\u00ea L\u1ee3i","name_en":"Le Loi","full_name":"Ph\u01b0\u1eddng L\u00ea L\u1ee3i","full_name_en":"Le Loi Ward","latitude":"","longitude":""},{"id":"09577","name":"Ph\u00fa Th\u1ecbnh","name_en":"Phu Thinh","full_name":"Ph\u01b0\u1eddng Ph\u00fa Th\u1ecbnh","full_name_en":"Phu Thinh Ward","latitude":"","longitude":""},{"id":"09580","name":"Ng\u00f4 Quy\u1ec1n","name_en":"Ngo Quyen","full_name":"Ph\u01b0\u1eddng Ng\u00f4 Quy\u1ec1n","full_name_en":"Ngo Quyen Ward","latitude":"","longitude":""},{"id":"09583","name":"Quang Trung","name_en":"Quang Trung","full_name":"Ph\u01b0\u1eddng Quang Trung","full_name_en":"Quang Trung Ward","latitude":"21.13660495","longitude":"105.50550279035923"},{"id":"09586","name":"S\u01a1n L\u1ed9c","name_en":"Son Loc","full_name":"Ph\u01b0\u1eddng S\u01a1n L\u1ed9c","full_name_en":"Son Loc Ward","latitude":"","longitude":""},{"id":"09589","name":"Xu\u00e2n Khanh","name_en":"Xuan Khanh","full_name":"Ph\u01b0\u1eddng Xu\u00e2n Khanh","full_name_en":"Xuan Khanh Ward","latitude":"","longitude":""},{"id":"09592","name":"\u0110\u01b0\u1eddng L\u00e2m","name_en":"Duong Lam","full_name":"X\u00e3 \u0110\u01b0\u1eddng L\u00e2m","full_name_en":"Duong Lam Commune","latitude":"21.1684791","longitude":"105.462422"},{"id":"09595","name":"Vi\u00ean S\u01a1n","name_en":"Vien Son","full_name":"Ph\u01b0\u1eddng Vi\u00ean S\u01a1n","full_name_en":"Vien Son Ward","latitude":"","longitude":""},{"id":"09598","name":"Xu\u00e2n S\u01a1n","name_en":"Xuan Son","full_name":"X\u00e3 Xu\u00e2n S\u01a1n","full_name_en":"Xuan Son Commune","latitude":"21.1350994","longitude":"105.4431951"},{"id":"09601","name":"Trung H\u01b0ng","name_en":"Trung Hung","full_name":"Ph\u01b0\u1eddng Trung H\u01b0ng","full_name_en":"Trung Hung Ward","latitude":"","longitude":""},{"id":"09604","name":"Thanh M\u1ef9","name_en":"Thanh My","full_name":"X\u00e3 Thanh M\u1ef9","full_name_en":"Thanh My Commune","latitude":"21.1200659","longitude":"105.458551"},{"id":"09607","name":"Trung S\u01a1n Tr\u1ea7m","name_en":"Trung Son Tram","full_name":"Ph\u01b0\u1eddng Trung S\u01a1n Tr\u1ea7m","full_name_en":"Trung Son Tram Ward","latitude":"","longitude":""},{"id":"09610","name":"Kim S\u01a1n","name_en":"Kim Son","full_name":"X\u00e3 Kim S\u01a1n","full_name_en":"Kim Son Commune","latitude":"21.095029","longitude":"105.4723202"},{"id":"09613","name":"S\u01a1n \u0110\u00f4ng","name_en":"Son Dong","full_name":"X\u00e3 S\u01a1n \u0110\u00f4ng","full_name_en":"Son Dong Commune","latitude":"21.1409065","longitude":"105.50776783162749"},{"id":"09616","name":"C\u1ed5 \u0110\u00f4ng","name_en":"Co Dong","full_name":"X\u00e3 C\u1ed5 \u0110\u00f4ng","full_name_en":"Co Dong Commune","latitude":"21.112324700000002","longitude":"105.43978339738094"}]},{"id":"271","name":"Ba V\u00ec","name_en":"Ba Vi","full_name":"Huy\u1ec7n Ba V\u00ec","full_name_en":"Ba Vi District","latitude":"21.155976600000002","longitude":"105.37494274237581","data3":[{"id":"09619","name":"T\u00e2y \u0110\u1eb1ng","name_en":"Tay Dang","full_name":"Th\u1ecb tr\u1ea5n T\u00e2y \u0110\u1eb1ng","full_name_en":"Tay Dang Township","latitude":"21.1983797","longitude":"105.4202841"},{"id":"09625","name":"Ph\u00fa C\u01b0\u1eddng","name_en":"Phu Cuong","full_name":"X\u00e3 Ph\u00fa C\u01b0\u1eddng","full_name_en":"Phu Cuong Commune","latitude":"21.28681995","longitude":"105.40325013564058"},{"id":"09628","name":"C\u1ed5 \u0110\u00f4","name_en":"Co Do","full_name":"X\u00e3 C\u1ed5 \u0110\u00f4","full_name_en":"Co Do Commune","latitude":"21.2843846","longitude":"105.37395172222531"},{"id":"09631","name":"T\u1ea3n H\u1ed3ng","name_en":"Tan Hong","full_name":"X\u00e3 T\u1ea3n H\u1ed3ng","full_name_en":"Tan Hong Commune","latitude":"21.2704447","longitude":"105.4201236632382"},{"id":"09634","name":"V\u1ea1n Th\u1eafng","name_en":"Van Thang","full_name":"X\u00e3 V\u1ea1n Th\u1eafng","full_name_en":"Van Thang Commune","latitude":"21.25615785","longitude":"105.39407304554011"},{"id":"09637","name":"Ch\u00e2u S\u01a1n","name_en":"Chau Son","full_name":"X\u00e3 Ch\u00e2u S\u01a1n","full_name_en":"Chau Son Commune","latitude":"21.26095805","longitude":"105.42923154454391"},{"id":"09640","name":"Phong V\u00e2n","name_en":"Phong Van","full_name":"X\u00e3 Phong V\u00e2n","full_name_en":"Phong Van Commune","latitude":"21.2574794","longitude":"105.36261496878767"},{"id":"09643","name":"Ph\u00fa \u0110\u00f4ng","name_en":"Phu Dong","full_name":"X\u00e3 Ph\u00fa \u0110\u00f4ng","full_name_en":"Phu Dong Commune","latitude":"21.2559648","longitude":"105.374432935465"},{"id":"09646","name":"Ph\u00fa Ph\u01b0\u01a1ng","name_en":"Phu Phuong","full_name":"X\u00e3 Ph\u00fa Ph\u01b0\u01a1ng","full_name_en":"Phu Phuong Commune","latitude":"21.24793205","longitude":"105.42182895736913"},{"id":"09649","name":"Ph\u00fa Ch\u00e2u","name_en":"Phu Chau","full_name":"X\u00e3 Ph\u00fa Ch\u00e2u","full_name_en":"Phu Chau Commune","latitude":"21.23440235","longitude":"105.42794332883287"},{"id":"09652","name":"Th\u00e1i H\u00f2a","name_en":"Thai Hoa","full_name":"X\u00e3 Th\u00e1i H\u00f2a","full_name_en":"Thai Hoa Commune","latitude":"21.2312759","longitude":"105.37559949141949"},{"id":"09655","name":"\u0110\u1ed3ng Th\u00e1i","name_en":"Dong Thai","full_name":"X\u00e3 \u0110\u1ed3ng Th\u00e1i","full_name_en":"Dong Thai Commune","latitude":"21.22762445","longitude":"105.39988538331122"},{"id":"09658","name":"Ph\u00fa S\u01a1n","name_en":"Phu Son","full_name":"X\u00e3 Ph\u00fa S\u01a1n","full_name_en":"Phu Son Commune","latitude":"21.2127823","longitude":"105.36042210852968"},{"id":"09661","name":"Minh Ch\u00e2u","name_en":"Minh Chau","full_name":"X\u00e3 Minh Ch\u00e2u","full_name_en":"Minh Chau Commune","latitude":"21.1983734","longitude":"105.46102734245295"},{"id":"09664","name":"V\u1eadt L\u1ea1i","name_en":"Vat Lai","full_name":"X\u00e3 V\u1eadt L\u1ea1i","full_name_en":"Vat Lai Commune","latitude":"21.194869949999998","longitude":"105.39375962214672"},{"id":"09667","name":"Chu Minh","name_en":"Chu Minh","full_name":"X\u00e3 Chu Minh","full_name_en":"Chu Minh Commune","latitude":"21.198889549999997","longitude":"105.44235900899145"},{"id":"09670","name":"T\u00f2ng B\u1ea1t","name_en":"Tong Bat","full_name":"X\u00e3 T\u00f2ng B\u1ea1t","full_name_en":"Tong Bat Commune","latitude":"21.19328395","longitude":"105.33083623216982"},{"id":"09673","name":"C\u1ea9m L\u0129nh","name_en":"Cam Linh","full_name":"X\u00e3 C\u1ea9m L\u0129nh","full_name_en":"Cam Linh Commune","latitude":"21.1679949","longitude":"105.35615485247502"},{"id":"09676","name":"S\u01a1n \u0110\u00e0","name_en":"Son Da","full_name":"X\u00e3 S\u01a1n \u0110\u00e0","full_name_en":"Son Da Commune","latitude":"21.172926750000002","longitude":"105.3143801366067"},{"id":"09679","name":"\u0110\u00f4ng Quang","name_en":"Dong Quang","full_name":"X\u00e3 \u0110\u00f4ng Quang","full_name_en":"Dong Quang Commune","latitude":"21.18059325","longitude":"105.45597337317935"},{"id":"09682","name":"Ti\u00ean Phong","name_en":"Tien Phong","full_name":"X\u00e3 Ti\u00ean Phong","full_name_en":"Tien Phong Commune","latitude":"21.1729713","longitude":"105.42699598444923"},{"id":"09685","name":"Th\u1ee5y An","name_en":"Thuy An","full_name":"X\u00e3 Th\u1ee5y An","full_name_en":"Thuy An Commune","latitude":"21.1578025","longitude":"105.40959173908942"},{"id":"09688","name":"Cam Th\u01b0\u1ee3ng","name_en":"Cam Thuong","full_name":"X\u00e3 Cam Th\u01b0\u1ee3ng","full_name_en":"Cam Thuong Commune","latitude":"21.1612696","longitude":"105.45363010967657"},{"id":"09691","name":"Thu\u1ea7n M\u1ef9","name_en":"Thuan My","full_name":"X\u00e3 Thu\u1ea7n M\u1ef9","full_name_en":"Thuan My Commune","latitude":"21.14000575","longitude":"105.31100533690577"},{"id":"09694","name":"T\u1ea3n L\u0129nh","name_en":"Tan Linh","full_name":"X\u00e3 T\u1ea3n L\u0129nh","full_name_en":"Tan Linh Commune","latitude":"21.12037575","longitude":"105.40354535610683"},{"id":"09697","name":"Ba Tr\u1ea1i","name_en":"Ba Trai","full_name":"X\u00e3 Ba Tr\u1ea1i","full_name_en":"Ba Trai Commune","latitude":"21.123322350000002","longitude":"105.35233952745668"},{"id":"09700","name":"Minh Quang","name_en":"Minh Quang","full_name":"X\u00e3 Minh Quang","full_name_en":"Minh Quang Commune","latitude":"21.07821715","longitude":"105.31726236671868"},{"id":"09703","name":"Ba V\u00ec","name_en":"Ba Vi","full_name":"X\u00e3 Ba V\u00ec","full_name_en":"Ba Vi Commune","latitude":"21.0731435","longitude":"105.35380911454934"},{"id":"09706","name":"V\u00e2n H\u00f2a","name_en":"Van Hoa","full_name":"X\u00e3 V\u00e2n H\u00f2a","full_name_en":"Van Hoa Commune","latitude":"21.06483815","longitude":"105.40174736842295"},{"id":"09709","name":"Y\u00ean B\u00e0i","name_en":"Yen Bai","full_name":"X\u00e3 Y\u00ean B\u00e0i","full_name_en":"Yen Bai Commune","latitude":"21.0433721","longitude":"105.43182192737905"},{"id":"09712","name":"Kh\u00e1nh Th\u01b0\u1ee3ng","name_en":"Khanh Thuong","full_name":"X\u00e3 Kh\u00e1nh Th\u01b0\u1ee3ng","full_name_en":"Khanh Thuong Commune","latitude":"21.02845045","longitude":"105.34330102634337"}]},{"id":"272","name":"Ph\u00fac Th\u1ecd","name_en":"Phuc Tho","full_name":"Huy\u1ec7n Ph\u00fac Th\u1ecd","full_name_en":"Phuc Tho District","latitude":"21.1096428","longitude":"105.57094469616789","data3":[{"id":"09715","name":"Ph\u00fac Th\u1ecd","name_en":"Phuc Tho","full_name":"Th\u1ecb tr\u1ea5n Ph\u00fac Th\u1ecd","full_name_en":"Phuc Tho Township","latitude":"21.1046561","longitude":"105.5445318"},{"id":"09718","name":"V\u00e2n H\u00e0","name_en":"Van Ha","full_name":"X\u00e3 V\u00e2n H\u00e0","full_name_en":"Van Ha Commune","latitude":"21.1450002","longitude":"105.6160504"},{"id":"09721","name":"V\u00e2n Ph\u00fac","name_en":"Van Phuc","full_name":"X\u00e3 V\u00e2n Ph\u00fac","full_name_en":"Van Phuc Commune","latitude":"21.146738","longitude":"105.5932087"},{"id":"09724","name":"V\u00e2n Nam","name_en":"Van Nam","full_name":"X\u00e3 V\u00e2n Nam","full_name_en":"Van Nam Commune","latitude":"21.1442712","longitude":"105.6047484"},{"id":"09727","name":"Xu\u00e2n \u0110\u00ecnh","name_en":"Xuan Dinh","full_name":"X\u00e3 Xu\u00e2n \u0110\u00ecnh","full_name_en":"Xuan Dinh Commune","latitude":"21.147649","longitude":"105.5470346"},{"id":"09733","name":"Sen Ph\u01b0\u01a1ng","name_en":"Sen Phuong","full_name":"X\u00e3 Sen Ph\u01b0\u01a1ng","full_name_en":"Sen Phuong Commune","latitude":"21.1468834","longitude":"105.54275426181233"},{"id":"09739","name":"V\u00f5ng Xuy\u00ean","name_en":"Vong Xuyen","full_name":"X\u00e3 V\u00f5ng Xuy\u00ean","full_name_en":"Vong Xuyen Commune","latitude":"","longitude":""},{"id":"09742","name":"Th\u1ecd L\u1ed9c","name_en":"Tho Loc","full_name":"X\u00e3 Th\u1ecd L\u1ed9c","full_name_en":"Tho Loc Commune","latitude":"","longitude":""},{"id":"09745","name":"Long Xuy\u00ean","name_en":"Long Xuyen","full_name":"X\u00e3 Long Xuy\u00ean","full_name_en":"Long Xuyen Commune","latitude":"","longitude":""},{"id":"09748","name":"Th\u01b0\u1ee3ng C\u1ed1c","name_en":"Thuong Coc","full_name":"X\u00e3 Th\u01b0\u1ee3ng C\u1ed1c","full_name_en":"Thuong Coc Commune","latitude":"","longitude":""},{"id":"09751","name":"H\u00e1t M\u00f4n","name_en":"Hat Mon","full_name":"X\u00e3 H\u00e1t M\u00f4n","full_name_en":"Hat Mon Commune","latitude":"21.1388524","longitude":"105.6222815"},{"id":"09754","name":"T\u00edch Giang","name_en":"Tich Giang","full_name":"X\u00e3 T\u00edch Giang","full_name_en":"Tich Giang Commune","latitude":"","longitude":""},{"id":"09757","name":"Thanh \u0110a","name_en":"Thanh Da","full_name":"X\u00e3 Thanh \u0110a","full_name_en":"Thanh Da Commune","latitude":"","longitude":""},{"id":"09760","name":"Tr\u1ea1ch M\u1ef9 L\u1ed9c","name_en":"Trach My Loc","full_name":"X\u00e3 Tr\u1ea1ch M\u1ef9 L\u1ed9c","full_name_en":"Trach My Loc Commune","latitude":"","longitude":""},{"id":"09763","name":"Ph\u00fac H\u00f2a","name_en":"Phuc Hoa","full_name":"X\u00e3 Ph\u00fac H\u00f2a","full_name_en":"Phuc Hoa Commune","latitude":"","longitude":""},{"id":"09766","name":"Ng\u1ecdc T\u1ea3o","name_en":"Ngoc Tao","full_name":"X\u00e3 Ng\u1ecdc T\u1ea3o","full_name_en":"Ngoc Tao Commune","latitude":"21.0878951","longitude":"105.5984579"},{"id":"09769","name":"Ph\u1ee5ng Th\u01b0\u1ee3ng","name_en":"Phung Thuong","full_name":"X\u00e3 Ph\u1ee5ng Th\u01b0\u1ee3ng","full_name_en":"Phung Thuong Commune","latitude":"21.0937365","longitude":"105.5782797"},{"id":"09772","name":"Tam Thu\u1ea5n","name_en":"Tam Thuan","full_name":"X\u00e3 Tam Thu\u1ea5n","full_name_en":"Tam Thuan Commune","latitude":"21.0862826","longitude":"105.6346712"},{"id":"09775","name":"Tam Hi\u1ec7p","name_en":"Tam Hiep","full_name":"X\u00e3 Tam Hi\u1ec7p","full_name_en":"Tam Hiep Commune","latitude":"21.0848806","longitude":"105.6234176"},{"id":"09778","name":"Hi\u1ec7p Thu\u1eadn","name_en":"Hiep Thuan","full_name":"X\u00e3 Hi\u1ec7p Thu\u1eadn","full_name_en":"Hiep Thuan Commune","latitude":"21.0862826","longitude":"105.6346712"},{"id":"09781","name":"Li\u00ean Hi\u1ec7p","name_en":"Lien Hiep","full_name":"X\u00e3 Li\u00ean Hi\u1ec7p","full_name_en":"Lien Hiep Commune","latitude":"21.0544518","longitude":"105.6445371"}]},{"id":"273","name":"\u0110an Ph\u01b0\u1ee3ng","name_en":"Dan Phuong","full_name":"Huy\u1ec7n \u0110an Ph\u01b0\u1ee3ng","full_name_en":"Dan Phuong District","latitude":"21.11962705","longitude":"105.67846820592845","data3":[{"id":"09784","name":"Ph\u00f9ng","name_en":"Phung","full_name":"Th\u1ecb tr\u1ea5n Ph\u00f9ng","full_name_en":"Phung Township","latitude":"21.08715965","longitude":"105.66372450733647"},{"id":"09787","name":"Trung Ch\u00e2u","name_en":"Trung Chau","full_name":"X\u00e3 Trung Ch\u00e2u","full_name_en":"Trung Chau Commune","latitude":"","longitude":""},{"id":"09790","name":"Th\u1ecd An","name_en":"Tho An","full_name":"X\u00e3 Th\u1ecd An","full_name_en":"Tho An Commune","latitude":"21.1273858","longitude":"105.6408919"},{"id":"09793","name":"Th\u1ecd Xu\u00e2n","name_en":"Tho Xuan","full_name":"X\u00e3 Th\u1ecd Xu\u00e2n","full_name_en":"Tho Xuan Commune","latitude":"","longitude":""},{"id":"09796","name":"H\u1ed3ng H\u00e0","name_en":"Hong Ha","full_name":"X\u00e3 H\u1ed3ng H\u00e0","full_name_en":"Hong Ha Commune","latitude":"21.11897205","longitude":"105.70596521059478"},{"id":"09799","name":"Li\u00ean H\u1ed3ng","name_en":"Lien Hong","full_name":"X\u00e3 Li\u00ean H\u1ed3ng","full_name_en":"Lien Hong Commune","latitude":"21.11897205","longitude":"105.70596521059478"},{"id":"09802","name":"Li\u00ean H\u00e0","name_en":"Lien Ha","full_name":"X\u00e3 Li\u00ean H\u00e0","full_name_en":"Lien Ha Commune","latitude":"21.11897205","longitude":"105.70596521059478"},{"id":"09805","name":"H\u1ea1 M\u1ed7","name_en":"Ha Mo","full_name":"X\u00e3 H\u1ea1 M\u1ed7","full_name_en":"Ha Mo Commune","latitude":"","longitude":""},{"id":"09808","name":"Li\u00ean Trung","name_en":"Lien Trung","full_name":"X\u00e3 Li\u00ean Trung","full_name_en":"Lien Trung Commune","latitude":"21.1062957","longitude":"105.7198663"},{"id":"09811","name":"Ph\u01b0\u01a1ng \u0110\u00ecnh","name_en":"Phuong Dinh","full_name":"X\u00e3 Ph\u01b0\u01a1ng \u0110\u00ecnh","full_name_en":"Phuong Dinh Commune","latitude":"21.1114402","longitude":"105.6475733"},{"id":"09814","name":"Th\u01b0\u1ee3ng M\u1ed7","name_en":"Thuong Mo","full_name":"X\u00e3 Th\u01b0\u1ee3ng M\u1ed7","full_name_en":"Thuong Mo Commune","latitude":"","longitude":""},{"id":"09817","name":"T\u00e2n H\u1ed9i","name_en":"Tan Hoi","full_name":"X\u00e3 T\u00e2n H\u1ed9i","full_name_en":"Tan Hoi Commune","latitude":"21.0930634","longitude":"105.6981232"},{"id":"09820","name":"T\u00e2n L\u1eadp","name_en":"Tan Lap","full_name":"X\u00e3 T\u00e2n L\u1eadp","full_name_en":"Tan Lap Commune","latitude":"","longitude":""},{"id":"09823","name":"\u0110an Ph\u01b0\u1ee3ng","name_en":"Dan Phuong","full_name":"X\u00e3 \u0110an Ph\u01b0\u1ee3ng","full_name_en":"Dan Phuong Commune","latitude":"21.0930634","longitude":"105.6981232"},{"id":"09826","name":"\u0110\u1ed3ng Th\u00e1p","name_en":"Dong Thap","full_name":"X\u00e3 \u0110\u1ed3ng Th\u00e1p","full_name_en":"Dong Thap Commune","latitude":"","longitude":""},{"id":"09829","name":"Song Ph\u01b0\u1ee3ng","name_en":"Song Phuong","full_name":"X\u00e3 Song Ph\u01b0\u1ee3ng","full_name_en":"Song Phuong Commune","latitude":"","longitude":""}]},{"id":"274","name":"Ho\u00e0i \u0110\u1ee9c","name_en":"Hoai Duc","full_name":"Huy\u1ec7n Ho\u00e0i \u0110\u1ee9c","full_name_en":"Hoai Duc District","latitude":"21.02292555","longitude":"105.70347943078642","data3":[{"id":"09832","name":"Tr\u1ea1m Tr\u00f4i","name_en":"Tram Troi","full_name":"Th\u1ecb tr\u1ea5n Tr\u1ea1m Tr\u00f4i","full_name_en":"Tram Troi Township","latitude":"21.06895595","longitude":"105.70623262688471"},{"id":"09835","name":"\u0110\u1ee9c Th\u01b0\u1ee3ng","name_en":"Duc Thuong","full_name":"X\u00e3 \u0110\u1ee9c Th\u01b0\u1ee3ng","full_name_en":"Duc Thuong Commune","latitude":"21.0029575","longitude":"105.6687092"},{"id":"09838","name":"Minh Khai","name_en":"Minh Khai","full_name":"X\u00e3 Minh Khai","full_name_en":"Minh Khai Commune","latitude":"21.0668224","longitude":"105.67236149581811"},{"id":"09841","name":"D\u01b0\u01a1ng Li\u1ec5u","name_en":"Duong Lieu","full_name":"X\u00e3 D\u01b0\u01a1ng Li\u1ec5u","full_name_en":"Duong Lieu Commune","latitude":"21.06050265","longitude":"105.68225499451876"},{"id":"09844","name":"Di Tr\u1ea1ch","name_en":"Di Trach","full_name":"X\u00e3 Di Tr\u1ea1ch","full_name_en":"Di Trach Commune","latitude":"21.0455263","longitude":"105.72222308945831"},{"id":"09847","name":"\u0110\u1ee9c Giang","name_en":"Duc Giang","full_name":"X\u00e3 \u0110\u1ee9c Giang","full_name_en":"Duc Giang Commune","latitude":"21.0621205","longitude":"105.69802807638169"},{"id":"09850","name":"C\u00e1t Qu\u1ebf","name_en":"Cat Que","full_name":"X\u00e3 C\u00e1t Qu\u1ebf","full_name_en":"Cat Que Commune","latitude":"21.0481657","longitude":"105.66873732072139"},{"id":"09853","name":"Kim Chung","name_en":"Kim Chung","full_name":"X\u00e3 Kim Chung","full_name_en":"Kim Chung Commune","latitude":"21.053104750000003","longitude":"105.70960209959745"},{"id":"09856","name":"Y\u00ean S\u1edf","name_en":"Yen So","full_name":"X\u00e3 Y\u00ean S\u1edf","full_name_en":"Yen So Commune","latitude":"21.0403873","longitude":"105.67716519750954"},{"id":"09859","name":"S\u01a1n \u0110\u1ed3ng","name_en":"Son Dong","full_name":"X\u00e3 S\u01a1n \u0110\u1ed3ng","full_name_en":"Son Dong Commune","latitude":"21.0409253","longitude":"105.6995826"},{"id":"09862","name":"V\u00e2n Canh","name_en":"Van Canh","full_name":"X\u00e3 V\u00e2n Canh","full_name_en":"Van Canh Commune","latitude":"21.029480149999998","longitude":"105.72760178114785"},{"id":"09865","name":"\u0110\u1eafc S\u1edf","name_en":"Dac So","full_name":"X\u00e3 \u0110\u1eafc S\u1edf","full_name_en":"Dac So Commune","latitude":"21.0303143","longitude":"105.67892976006333"},{"id":"09868","name":"L\u1ea1i Y\u00ean","name_en":"Lai Yen","full_name":"X\u00e3 L\u1ea1i Y\u00ean","full_name_en":"Lai Yen Commune","latitude":"21.025811249999997","longitude":"105.70884707302133"},{"id":"09871","name":"Ti\u1ec1n Y\u00ean","name_en":"Tien Yen","full_name":"X\u00e3 Ti\u1ec1n Y\u00ean","full_name_en":"Tien Yen Commune","latitude":"21.0211229","longitude":"105.68361551343956"},{"id":"09874","name":"Song Ph\u01b0\u01a1ng","name_en":"Song Phuong","full_name":"X\u00e3 Song Ph\u01b0\u01a1ng","full_name_en":"Song Phuong Commune","latitude":"21.01239065","longitude":"105.69519257310776"},{"id":"09877","name":"An Kh\u00e1nh","name_en":"An Khanh","full_name":"X\u00e3 An Kh\u00e1nh","full_name_en":"An Khanh Commune","latitude":"21.0002679","longitude":"105.72197311297315"},{"id":"09880","name":"An Th\u01b0\u1ee3ng","name_en":"An Thuong","full_name":"X\u00e3 An Th\u01b0\u1ee3ng","full_name_en":"An Thuong Commune","latitude":"20.9906808","longitude":"105.70024448448845"},{"id":"09883","name":"V\u00e2n C\u00f4n","name_en":"Van Con","full_name":"X\u00e3 V\u00e2n C\u00f4n","full_name_en":"Van Con Commune","latitude":"20.989525800000003","longitude":"105.67636529245442"},{"id":"09889","name":"La Ph\u00f9","name_en":"La Phu","full_name":"X\u00e3 La Ph\u00f9","full_name_en":"La Phu Commune","latitude":"20.979231849999998","longitude":"105.73148786158015"},{"id":"09892","name":"\u0110\u00f4ng La","name_en":"Dong La","full_name":"X\u00e3 \u0110\u00f4ng La","full_name_en":"Dong La Commune","latitude":"20.9680006","longitude":"105.72604150622814"}]},{"id":"275","name":"Qu\u1ed1c Oai","name_en":"Quoc Oai","full_name":"Huy\u1ec7n Qu\u1ed1c Oai","full_name_en":"Quoc Oai District","latitude":"20.9779128","longitude":"105.62959219969346","data3":[{"id":"04939","name":"\u0110\u00f4ng Xu\u00e2n","name_en":"Dong Xuan","full_name":"X\u00e3 \u0110\u00f4ng Xu\u00e2n","full_name_en":"Dong Xuan Commune","latitude":"20.9625456","longitude":"105.5126641"},{"id":"09895","name":"Qu\u1ed1c Oai","name_en":"Quoc Oai","full_name":"Th\u1ecb tr\u1ea5n Qu\u1ed1c Oai","full_name_en":"Quoc Oai Township","latitude":"21.0019345","longitude":"105.6302164"},{"id":"09898","name":"S\u00e0i S\u01a1n","name_en":"Sai Son","full_name":"X\u00e3 S\u00e0i S\u01a1n","full_name_en":"Sai Son Commune","latitude":"21.0238186","longitude":"105.6464657"},{"id":"09901","name":"Ph\u01b0\u1ee3ng C\u00e1ch","name_en":"Phuong Cach","full_name":"X\u00e3 Ph\u01b0\u1ee3ng C\u00e1ch","full_name_en":"Phuong Cach Commune","latitude":"","longitude":""},{"id":"09904","name":"Y\u00ean S\u01a1n","name_en":"Yen Son","full_name":"X\u00e3 Y\u00ean S\u01a1n","full_name_en":"Yen Son Commune","latitude":"","longitude":""},{"id":"09907","name":"Ng\u1ecdc Li\u1ec7p","name_en":"Ngoc Liep","full_name":"X\u00e3 Ng\u1ecdc Li\u1ec7p","full_name_en":"Ngoc Liep Commune","latitude":"21.0004598","longitude":"105.6064401"},{"id":"09910","name":"Ng\u1ecdc M\u1ef9","name_en":"Ngoc My","full_name":"X\u00e3 Ng\u1ecdc M\u1ef9","full_name_en":"Ngoc My Commune","latitude":"21.0010506","longitude":"105.6218221"},{"id":"09913","name":"Li\u1ec7p Tuy\u1ebft","name_en":"Liep Tuyet","full_name":"X\u00e3 Li\u1ec7p Tuy\u1ebft","full_name_en":"Liep Tuyet Commune","latitude":"","longitude":""},{"id":"09916","name":"Th\u1ea1ch Th\u00e1n","name_en":"Thach Than","full_name":"X\u00e3 Th\u1ea1ch Th\u00e1n","full_name_en":"Thach Than Commune","latitude":"20.9894851","longitude":"105.6350758"},{"id":"09919","name":"\u0110\u1ed3ng Quang","name_en":"Dong Quang","full_name":"X\u00e3 \u0110\u1ed3ng Quang","full_name_en":"Dong Quang Commune","latitude":"","longitude":""},{"id":"09922","name":"Ph\u00fa C\u00e1t","name_en":"Phu Cat","full_name":"X\u00e3 Ph\u00fa C\u00e1t","full_name_en":"Phu Cat Commune","latitude":"20.9724857","longitude":"105.5581078"},{"id":"09925","name":"Tuy\u1ebft Ngh\u0129a","name_en":"Tuyet Nghia","full_name":"X\u00e3 Tuy\u1ebft Ngh\u0129a","full_name_en":"Tuyet Nghia Commune","latitude":"20.9722435","longitude":"105.5881673"},{"id":"09928","name":"Ngh\u0129a H\u01b0\u01a1ng","name_en":"Nghia Huong","full_name":"X\u00e3 Ngh\u0129a H\u01b0\u01a1ng","full_name_en":"Nghia Huong Commune","latitude":"20.9727604","longitude":"105.6144225"},{"id":"09931","name":"C\u1ed9ng H\u00f2a","name_en":"Cong Hoa","full_name":"X\u00e3 C\u1ed9ng H\u00f2a","full_name_en":"Cong Hoa Commune","latitude":"20.9766472","longitude":"105.6755494"},{"id":"09934","name":"T\u00e2n Ph\u00fa","name_en":"Tan Phu","full_name":"X\u00e3 T\u00e2n Ph\u00fa","full_name_en":"Tan Phu Commune","latitude":"","longitude":""},{"id":"09937","name":"\u0110\u1ea1i Th\u00e0nh","name_en":"Dai Thanh","full_name":"X\u00e3 \u0110\u1ea1i Th\u00e0nh","full_name_en":"Dai Thanh Commune","latitude":"","longitude":""},{"id":"09940","name":"Ph\u00fa M\u00e3n","name_en":"Phu Man","full_name":"X\u00e3 Ph\u00fa M\u00e3n","full_name_en":"Phu Man Commune","latitude":"","longitude":""},{"id":"09943","name":"C\u1ea5n H\u1eefu","name_en":"Can Huu","full_name":"X\u00e3 C\u1ea5n H\u1eefu","full_name_en":"Can Huu Commune","latitude":"20.9558451","longitude":"105.61865"},{"id":"09946","name":"T\u00e2n H\u00f2a","name_en":"Tan Hoa","full_name":"X\u00e3 T\u00e2n H\u00f2a","full_name_en":"Tan Hoa Commune","latitude":"","longitude":""},{"id":"09949","name":"H\u00f2a Th\u1ea1ch","name_en":"Hoa Thach","full_name":"X\u00e3 H\u00f2a Th\u1ea1ch","full_name_en":"Hoa Thach Commune","latitude":"20.946170600000002","longitude":"105.57808878172658"},{"id":"09952","name":"\u0110\u00f4ng Y\u00ean","name_en":"Dong Yen","full_name":"X\u00e3 \u0110\u00f4ng Y\u00ean","full_name_en":"Dong Yen Commune","latitude":"20.9320834","longitude":"105.6003232"}]},{"id":"276","name":"Th\u1ea1ch Th\u1ea5t","name_en":"Thach That","full_name":"Huy\u1ec7n Th\u1ea1ch Th\u1ea5t","full_name_en":"Thach That District","latitude":"21.0235566","longitude":"105.55373581804929","data3":[{"id":"04927","name":"Y\u00ean Trung","name_en":"Yen Trung","full_name":"X\u00e3 Y\u00ean Trung","full_name_en":"Yen Trung Commune","latitude":"","longitude":""},{"id":"04930","name":"Y\u00ean B\u00ecnh","name_en":"Yen Binh","full_name":"X\u00e3 Y\u00ean B\u00ecnh","full_name_en":"Yen Binh Commune","latitude":"21.0397996","longitude":"105.5487425"},{"id":"04936","name":"Ti\u1ebfn Xu\u00e2n","name_en":"Tien Xuan","full_name":"X\u00e3 Ti\u1ebfn Xu\u00e2n","full_name_en":"Tien Xuan Commune","latitude":"20.9903179","longitude":"105.5162732"},{"id":"09955","name":"Li\u00ean Quan","name_en":"Lien Quan","full_name":"Th\u1ecb tr\u1ea5n Li\u00ean Quan","full_name_en":"Lien Quan Township","latitude":"21.05480575","longitude":"105.57639815509981"},{"id":"09958","name":"\u0110\u1ea1i \u0110\u1ed3ng","name_en":"Dai Dong","full_name":"X\u00e3 \u0110\u1ea1i \u0110\u1ed3ng","full_name_en":"Dai Dong Commune","latitude":"21.08451355","longitude":"105.56406005392142"},{"id":"09961","name":"C\u1ea9m Y\u00ean","name_en":"Cam Yen","full_name":"X\u00e3 C\u1ea9m Y\u00ean","full_name_en":"Cam Yen Commune","latitude":"","longitude":""},{"id":"09964","name":"L\u1ea1i Th\u01b0\u1ee3ng","name_en":"Lai Thuong","full_name":"X\u00e3 L\u1ea1i Th\u01b0\u1ee3ng","full_name_en":"Lai Thuong Commune","latitude":"","longitude":""},{"id":"09967","name":"Ph\u00fa Kim","name_en":"Phu Kim","full_name":"X\u00e3 Ph\u00fa Kim","full_name_en":"Phu Kim Commune","latitude":"","longitude":""},{"id":"09970","name":"H\u01b0\u01a1ng Ng\u1ea3i","name_en":"Huong Ngai","full_name":"X\u00e3 H\u01b0\u01a1ng Ng\u1ea3i","full_name_en":"Huong Ngai Commune","latitude":"21.0562512","longitude":"105.5986139"},{"id":"09973","name":"Canh N\u1eadu","name_en":"Canh Nau","full_name":"X\u00e3 Canh N\u1eadu","full_name_en":"Canh Nau Commune","latitude":"21.0449188","longitude":"105.6102438"},{"id":"09976","name":"Kim Quan","name_en":"Kim Quan","full_name":"X\u00e3 Kim Quan","full_name_en":"Kim Quan Commune","latitude":"","longitude":""},{"id":"09979","name":"D\u1ecb N\u1eadu","name_en":"Di Nau","full_name":"X\u00e3 D\u1ecb N\u1eadu","full_name_en":"Di Nau Commune","latitude":"21.0525107","longitude":"105.6220421"},{"id":"09982","name":"B\u00ecnh Y\u00ean","name_en":"Binh Yen","full_name":"X\u00e3 B\u00ecnh Y\u00ean","full_name_en":"Binh Yen Commune","latitude":"21.0397996","longitude":"105.5487425"},{"id":"09985","name":"Ch\u00e0ng S\u01a1n","name_en":"Chang Son","full_name":"X\u00e3 Ch\u00e0ng S\u01a1n","full_name_en":"Chang Son Commune","latitude":"","longitude":""},{"id":"09988","name":"Th\u1ea1ch Ho\u00e0","name_en":"Thach Hoa","full_name":"X\u00e3 Th\u1ea1ch Ho\u00e0","full_name_en":"Thach Hoa Commune","latitude":"20.9847795","longitude":"105.5264604"},{"id":"09991","name":"C\u1ea7n Ki\u1ec7m","name_en":"Can Kiem","full_name":"X\u00e3 C\u1ea7n Ki\u1ec7m","full_name_en":"Can Kiem Commune","latitude":"","longitude":""},{"id":"09994","name":"H\u1eefu B\u1eb1ng","name_en":"Huu Bang","full_name":"X\u00e3 H\u1eefu B\u1eb1ng","full_name_en":"Huu Bang Commune","latitude":"","longitude":""},{"id":"09997","name":"Ph\u00f9ng X\u00e1","name_en":"Phung Xa","full_name":"X\u00e3 Ph\u00f9ng X\u00e1","full_name_en":"Phung Xa Commune","latitude":"21.0193777","longitude":"105.62140695582312"},{"id":"10000","name":"T\u00e2n X\u00e3","name_en":"Tan Xa","full_name":"X\u00e3 T\u00e2n X\u00e3","full_name_en":"Tan Xa Commune","latitude":"21.01809025","longitude":"105.54249700602341"},{"id":"10003","name":"Th\u1ea1ch X\u00e1","name_en":"Thach Xa","full_name":"X\u00e3 Th\u1ea1ch X\u00e1","full_name_en":"Thach Xa Commune","latitude":"21.032547","longitude":"105.60321988040329"},{"id":"10006","name":"B\u00ecnh Ph\u00fa","name_en":"Binh Phu","full_name":"X\u00e3 B\u00ecnh Ph\u00fa","full_name_en":"Binh Phu Commune","latitude":"21.0207526","longitude":"105.6089149"},{"id":"10009","name":"H\u1ea1 B\u1eb1ng","name_en":"Ha Bang","full_name":"X\u00e3 H\u1ea1 B\u1eb1ng","full_name_en":"Ha Bang Commune","latitude":"21.0101432","longitude":"105.55159348009451"},{"id":"10012","name":"\u0110\u1ed3ng Tr\u00fac","name_en":"Dong Truc","full_name":"X\u00e3 \u0110\u1ed3ng Tr\u00fac","full_name_en":"Dong Truc Commune","latitude":"20.99371885","longitude":"105.56927171537336"}]},{"id":"277","name":"Ch\u01b0\u01a1ng M\u1ef9","name_en":"Chuong My","full_name":"Huy\u1ec7n Ch\u01b0\u01a1ng M\u1ef9","full_name_en":"Chuong My District","latitude":"20.87851585","longitude":"105.64923352491572","data3":[{"id":"10015","name":"Ch\u00fac S\u01a1n","name_en":"Chuc Son","full_name":"Th\u1ecb tr\u1ea5n Ch\u00fac S\u01a1n","full_name_en":"Chuc Son Township","latitude":"20.9259968","longitude":"105.7108692"},{"id":"10018","name":"Xu\u00e2n Mai","name_en":"Xuan Mai","full_name":"Th\u1ecb tr\u1ea5n Xu\u00e2n Mai","full_name_en":"Xuan Mai Township","latitude":"20.9042782","longitude":"105.5879569"},{"id":"10021","name":"Ph\u1ee5ng Ch\u00e2u","name_en":"Phung Chau","full_name":"X\u00e3 Ph\u1ee5ng Ch\u00e2u","full_name_en":"Phung Chau Commune","latitude":"20.9471602","longitude":"105.7074875"},{"id":"10024","name":"Ti\u00ean Ph\u01b0\u01a1ng","name_en":"Tien Phuong","full_name":"X\u00e3 Ti\u00ean Ph\u01b0\u01a1ng","full_name_en":"Tien Phuong Commune","latitude":"20.9420464","longitude":"105.6847549"},{"id":"10027","name":"\u0110\u00f4ng S\u01a1n","name_en":"Dong Son","full_name":"X\u00e3 \u0110\u00f4ng S\u01a1n","full_name_en":"Dong Son Commune","latitude":"20.833198","longitude":"105.7103053"},{"id":"10030","name":"\u0110\u00f4ng Ph\u01b0\u01a1ng Y\u00ean","name_en":"Dong Phuong Yen","full_name":"X\u00e3 \u0110\u00f4ng Ph\u01b0\u01a1ng Y\u00ean","full_name_en":"Dong Phuong Yen Commune","latitude":"","longitude":""},{"id":"10033","name":"Ph\u00fa Ngh\u0129a","name_en":"Phu Nghia","full_name":"X\u00e3 Ph\u00fa Ngh\u0129a","full_name_en":"Phu Nghia Commune","latitude":"20.8339451","longitude":"105.67313669999999"},{"id":"10039","name":"Tr\u01b0\u1eddng Y\u00ean","name_en":"Truong Yen","full_name":"X\u00e3 Tr\u01b0\u1eddng Y\u00ean","full_name_en":"Truong Yen Commune","latitude":"20.9040035","longitude":"105.6979973"},{"id":"10042","name":"Ng\u1ecdc H\u00f2a","name_en":"Ngoc Hoa","full_name":"X\u00e3 Ng\u1ecdc H\u00f2a","full_name_en":"Ngoc Hoa Commune","latitude":"20.92095175","longitude":"105.69334901554507"},{"id":"10045","name":"Th\u1ee7y Xu\u00e2n Ti\u00ean","name_en":"Thuy Xuan Tien","full_name":"X\u00e3 Th\u1ee7y Xu\u00e2n Ti\u00ean","full_name_en":"Thuy Xuan Tien Commune","latitude":"20.890722","longitude":"105.5799584"},{"id":"10048","name":"Thanh B\u00ecnh","name_en":"Thanh Binh","full_name":"X\u00e3 Thanh B\u00ecnh","full_name_en":"Thanh Binh Commune","latitude":"","longitude":""},{"id":"10051","name":"Trung H\u00f2a","name_en":"Trung Hoa","full_name":"X\u00e3 Trung H\u00f2a","full_name_en":"Trung Hoa Commune","latitude":"20.901556749999997","longitude":"105.69849292677625"},{"id":"10054","name":"\u0110\u1ea1i Y\u00ean","name_en":"Dai Yen","full_name":"X\u00e3 \u0110\u1ea1i Y\u00ean","full_name_en":"Dai Yen Commune","latitude":"20.8940248","longitude":"105.6983372"},{"id":"10057","name":"Th\u1ee5y H\u01b0\u01a1ng","name_en":"Thuy Huong","full_name":"X\u00e3 Th\u1ee5y H\u01b0\u01a1ng","full_name_en":"Thuy Huong Commune","latitude":"","longitude":""},{"id":"10060","name":"T\u1ed1t \u0110\u1ed9ng","name_en":"Tot Dong","full_name":"X\u00e3 T\u1ed1t \u0110\u1ed9ng","full_name_en":"Tot Dong Commune","latitude":"20.8796338","longitude":"105.670039"},{"id":"10063","name":"Lam \u0110i\u1ec1n","name_en":"Lam Dien","full_name":"X\u00e3 Lam \u0110i\u1ec1n","full_name_en":"Lam Dien Commune","latitude":"20.8950021","longitude":"105.7188123"},{"id":"10066","name":"T\u00e2n Ti\u1ebfn","name_en":"Tan Tien","full_name":"X\u00e3 T\u00e2n Ti\u1ebfn","full_name_en":"Tan Tien Commune","latitude":"","longitude":""},{"id":"10069","name":"Nam Ph\u01b0\u01a1ng Ti\u1ebfn","name_en":"Nam Phuong Tien","full_name":"X\u00e3 Nam Ph\u01b0\u01a1ng Ti\u1ebfn","full_name_en":"Nam Phuong Tien Commune","latitude":"","longitude":""},{"id":"10072","name":"H\u1ee3p \u0110\u1ed3ng","name_en":"Hop Dong","full_name":"X\u00e3 H\u1ee3p \u0110\u1ed3ng","full_name_en":"Hop Dong Commune","latitude":"20.8769029","longitude":"105.7018592"},{"id":"10075","name":"Ho\u00e0ng V\u0103n Th\u1ee5","name_en":"Hoang Van Thu","full_name":"X\u00e3 Ho\u00e0ng V\u0103n Th\u1ee5","full_name_en":"Hoang Van Thu Commune","latitude":"","longitude":""},{"id":"10078","name":"Ho\u00e0ng Di\u1ec7u","name_en":"Hoang Dieu","full_name":"X\u00e3 Ho\u00e0ng Di\u1ec7u","full_name_en":"Hoang Dieu Commune","latitude":"","longitude":""},{"id":"10081","name":"H\u1eefu V\u0103n","name_en":"Huu Van","full_name":"X\u00e3 H\u1eefu V\u0103n","full_name_en":"Huu Van Commune","latitude":"20.8560942","longitude":"105.6566238"},{"id":"10084","name":"Qu\u1ea3ng B\u1ecb","name_en":"Quang Bi","full_name":"X\u00e3 Qu\u1ea3ng B\u1ecb","full_name_en":"Quang Bi Commune","latitude":"","longitude":""},{"id":"10087","name":"M\u1ef9 L\u01b0\u01a1ng","name_en":"My Luong","full_name":"X\u00e3 M\u1ef9 L\u01b0\u01a1ng","full_name_en":"My Luong Commune","latitude":"","longitude":""},{"id":"10090","name":"Th\u01b0\u1ee3ng V\u1ef1c","name_en":"Thuong Vuc","full_name":"X\u00e3 Th\u01b0\u1ee3ng V\u1ef1c","full_name_en":"Thuong Vuc Commune","latitude":"","longitude":""},{"id":"10093","name":"H\u1ed3ng Phong","name_en":"Hong Phong","full_name":"X\u00e3 H\u1ed3ng Phong","full_name_en":"Hong Phong Commune","latitude":"","longitude":""},{"id":"10096","name":"\u0110\u1ed3ng Ph\u00fa","name_en":"Dong Phu","full_name":"X\u00e3 \u0110\u1ed3ng Ph\u00fa","full_name_en":"Dong Phu Commune","latitude":"20.8326853","longitude":"105.7100094"},{"id":"10099","name":"Tr\u1ea7n Ph\u00fa","name_en":"Tran Phu","full_name":"X\u00e3 Tr\u1ea7n Ph\u00fa","full_name_en":"Tran Phu Commune","latitude":"20.8325","longitude":"105.660407"},{"id":"10102","name":"V\u0103n V\u00f5","name_en":"Van Vo","full_name":"X\u00e3 V\u0103n V\u00f5","full_name_en":"Van Vo Commune","latitude":"","longitude":""},{"id":"10105","name":"\u0110\u1ed3ng L\u1ea1c","name_en":"Dong Lac","full_name":"X\u00e3 \u0110\u1ed3ng L\u1ea1c","full_name_en":"Dong Lac Commune","latitude":"20.82157935","longitude":"105.68263045452063"},{"id":"10108","name":"H\u00f2a Ch\u00ednh","name_en":"Hoa Chinh","full_name":"X\u00e3 H\u00f2a Ch\u00ednh","full_name_en":"Hoa Chinh Commune","latitude":"","longitude":""},{"id":"10111","name":"Ph\u00fa Nam An","name_en":"Phu Nam An","full_name":"X\u00e3 Ph\u00fa Nam An","full_name_en":"Phu Nam An Commune","latitude":"","longitude":""}]},{"id":"278","name":"Thanh Oai","name_en":"Thanh Oai","full_name":"Huy\u1ec7n Thanh Oai","full_name_en":"Thanh Oai District","latitude":"20.8602693","longitude":"105.78016441102196","data3":[{"id":"10114","name":"Kim B\u00e0i","name_en":"Kim Bai","full_name":"Th\u1ecb tr\u1ea5n Kim B\u00e0i","full_name_en":"Kim Bai Township","latitude":"","longitude":""},{"id":"10120","name":"C\u1ef1 Kh\u00ea","name_en":"Cu Khe","full_name":"X\u00e3 C\u1ef1 Kh\u00ea","full_name_en":"Cu Khe Commune","latitude":"20.9111461","longitude":"105.7815231"},{"id":"10126","name":"B\u00edch H\u00f2a","name_en":"Bich Hoa","full_name":"X\u00e3 B\u00edch H\u00f2a","full_name_en":"Bich Hoa Commune","latitude":"","longitude":""},{"id":"10129","name":"M\u1ef9 H\u01b0ng","name_en":"My Hung","full_name":"X\u00e3 M\u1ef9 H\u01b0ng","full_name_en":"My Hung Commune","latitude":"","longitude":""},{"id":"10132","name":"Cao Vi\u00ean","name_en":"Cao Vien","full_name":"X\u00e3 Cao Vi\u00ean","full_name_en":"Cao Vien Commune","latitude":"","longitude":""},{"id":"10135","name":"B\u00ecnh Minh","name_en":"Binh Minh","full_name":"X\u00e3 B\u00ecnh Minh","full_name_en":"Binh Minh Commune","latitude":"","longitude":""},{"id":"10138","name":"Tam H\u01b0ng","name_en":"Tam Hung","full_name":"X\u00e3 Tam H\u01b0ng","full_name_en":"Tam Hung Commune","latitude":"20.8837388","longitude":"105.7901402"},{"id":"10141","name":"Thanh Cao","name_en":"Thanh Cao","full_name":"X\u00e3 Thanh Cao","full_name_en":"Thanh Cao Commune","latitude":"","longitude":""},{"id":"10144","name":"Thanh Th\u00f9y","name_en":"Thanh Thuy","full_name":"X\u00e3 Thanh Th\u00f9y","full_name_en":"Thanh Thuy Commune","latitude":"20.8696803","longitude":"105.8214952"},{"id":"10147","name":"Thanh Mai","name_en":"Thanh Mai","full_name":"X\u00e3 Thanh Mai","full_name_en":"Thanh Mai Commune","latitude":"20.8612516","longitude":"105.7463121"},{"id":"10150","name":"Thanh V\u0103n","name_en":"Thanh Van","full_name":"X\u00e3 Thanh V\u0103n","full_name_en":"Thanh Van Commune","latitude":"20.9632178","longitude":"105.8173642"},{"id":"10153","name":"\u0110\u1ed7 \u0110\u1ed9ng","name_en":"Do Dong","full_name":"X\u00e3 \u0110\u1ed7 \u0110\u1ed9ng","full_name_en":"Do Dong Commune","latitude":"","longitude":""},{"id":"10156","name":"Kim An","name_en":"Kim An","full_name":"X\u00e3 Kim An","full_name_en":"Kim An Commune","latitude":"20.8486489","longitude":"105.7573423"},{"id":"10159","name":"Kim Th\u01b0","name_en":"Kim Thu","full_name":"X\u00e3 Kim Th\u01b0","full_name_en":"Kim Thu Commune","latitude":"20.8362043","longitude":"105.77159"},{"id":"10162","name":"Ph\u01b0\u01a1ng Trung","name_en":"Phuong Trung","full_name":"X\u00e3 Ph\u01b0\u01a1ng Trung","full_name_en":"Phuong Trung Commune","latitude":"","longitude":""},{"id":"10165","name":"T\u00e2n \u01af\u1edbc","name_en":"Tan Uoc","full_name":"X\u00e3 T\u00e2n \u01af\u1edbc","full_name_en":"Tan Uoc Commune","latitude":"20.8385555","longitude":"105.8082173"},{"id":"10168","name":"D\u00e2n H\u00f2a","name_en":"Dan Hoa","full_name":"X\u00e3 D\u00e2n H\u00f2a","full_name_en":"Dan Hoa Commune","latitude":"20.8131496","longitude":"105.7799196"},{"id":"10171","name":"Li\u00ean Ch\u00e2u","name_en":"Lien Chau","full_name":"X\u00e3 Li\u00ean Ch\u00e2u","full_name_en":"Lien Chau Commune","latitude":"","longitude":""},{"id":"10174","name":"Cao D\u01b0\u01a1ng","name_en":"Cao Duong","full_name":"X\u00e3 Cao D\u01b0\u01a1ng","full_name_en":"Cao Duong Commune","latitude":"20.8113979","longitude":"105.7668789"},{"id":"10177","name":"Xu\u00e2n D\u01b0\u01a1ng","name_en":"Xuan Duong","full_name":"X\u00e3 Xu\u00e2n D\u01b0\u01a1ng","full_name_en":"Xuan Duong Commune","latitude":"20.8063152","longitude":"105.7381223"},{"id":"10180","name":"H\u1ed3ng D\u01b0\u01a1ng","name_en":"Hong Duong","full_name":"X\u00e3 H\u1ed3ng D\u01b0\u01a1ng","full_name_en":"Hong Duong Commune","latitude":"","longitude":""}]},{"id":"279","name":"Th\u01b0\u1eddng T\u00edn","name_en":"Thuong Tin","full_name":"Huy\u1ec7n Th\u01b0\u1eddng T\u00edn","full_name_en":"Thuong Tin District","latitude":"20.8319978","longitude":"105.87006434087073","data3":[{"id":"10183","name":"Th\u01b0\u1eddng T\u00edn","name_en":"Thuong Tin","full_name":"Th\u1ecb tr\u1ea5n Th\u01b0\u1eddng T\u00edn","full_name_en":"Thuong Tin Township","latitude":"20.8745095","longitude":"105.8630701"},{"id":"10186","name":"Ninh S\u1edf","name_en":"Ninh So","full_name":"X\u00e3 Ninh S\u1edf","full_name_en":"Ninh So Commune","latitude":"","longitude":""},{"id":"10189","name":"Nh\u1ecb Kh\u00ea","name_en":"Nhi Khe","full_name":"X\u00e3 Nh\u1ecb Kh\u00ea","full_name_en":"Nhi Khe Commune","latitude":"20.8942258","longitude":"105.8550069"},{"id":"10192","name":"Duy\u00ean Th\u00e1i","name_en":"Duyen Thai","full_name":"X\u00e3 Duy\u00ean Th\u00e1i","full_name_en":"Duyen Thai Commune","latitude":"20.9015782","longitude":"105.8658054"},{"id":"10195","name":"Kh\u00e1nh H\u00e0","name_en":"Khanh Ha","full_name":"X\u00e3 Kh\u00e1nh H\u00e0","full_name_en":"Khanh Ha Commune","latitude":"","longitude":""},{"id":"10198","name":"H\u00f2a B\u00ecnh","name_en":"Hoa Binh","full_name":"X\u00e3 H\u00f2a B\u00ecnh","full_name_en":"Hoa Binh Commune","latitude":"","longitude":""},{"id":"10201","name":"V\u0103n B\u00ecnh","name_en":"Van Binh","full_name":"X\u00e3 V\u0103n B\u00ecnh","full_name_en":"Van Binh Commune","latitude":"","longitude":""},{"id":"10204","name":"Hi\u1ec1n Giang","name_en":"Hien Giang","full_name":"X\u00e3 Hi\u1ec1n Giang","full_name_en":"Hien Giang Commune","latitude":"","longitude":""},{"id":"10207","name":"H\u1ed3ng V\u00e2n","name_en":"Hong Van","full_name":"X\u00e3 H\u1ed3ng V\u00e2n","full_name_en":"Hong Van Commune","latitude":"","longitude":""},{"id":"10210","name":"V\u00e2n T\u1ea3o","name_en":"Van Tao","full_name":"X\u00e3 V\u00e2n T\u1ea3o","full_name_en":"Van Tao Commune","latitude":"20.8669784","longitude":"105.8932186"},{"id":"10213","name":"Li\u00ean Ph\u01b0\u01a1ng","name_en":"Lien Phuong","full_name":"X\u00e3 Li\u00ean Ph\u01b0\u01a1ng","full_name_en":"Lien Phuong Commune","latitude":"","longitude":""},{"id":"10216","name":"V\u0103n Ph\u00fa","name_en":"Van Phu","full_name":"X\u00e3 V\u0103n Ph\u00fa","full_name_en":"Van Phu Commune","latitude":"","longitude":""},{"id":"10219","name":"T\u1ef1 Nhi\u00ean","name_en":"Tu Nhien","full_name":"X\u00e3 T\u1ef1 Nhi\u00ean","full_name_en":"Tu Nhien Commune","latitude":"","longitude":""},{"id":"10222","name":"Ti\u1ec1n Phong","name_en":"Tien Phong","full_name":"X\u00e3 Ti\u1ec1n Phong","full_name_en":"Tien Phong Commune","latitude":"","longitude":""},{"id":"10225","name":"H\u00e0 H\u1ed3i","name_en":"Ha Hoi","full_name":"X\u00e3 H\u00e0 H\u1ed3i","full_name_en":"Ha Hoi Commune","latitude":"","longitude":""},{"id":"10228","name":"Th\u01b0 Ph\u00fa","name_en":"Thu Phu","full_name":"X\u00e3 Th\u01b0 Ph\u00fa","full_name_en":"Thu Phu Commune","latitude":"","longitude":""},{"id":"10231","name":"Nguy\u1ec5n Tr\u00e3i","name_en":"Nguyen Trai","full_name":"X\u00e3 Nguy\u1ec5n Tr\u00e3i","full_name_en":"Nguyen Trai Commune","latitude":"","longitude":""},{"id":"10234","name":"Qu\u1ea5t \u0110\u1ed9ng","name_en":"Quat Dong","full_name":"X\u00e3 Qu\u1ea5t \u0110\u1ed9ng","full_name_en":"Quat Dong Commune","latitude":"20.8210983","longitude":"105.8831974"},